subject,Nome_Istituzionale,Latitudine,Longitudine,Indirizzo,Codice_postale,Comune,Provincia
http://dati.beniculturali.it/mibact/luoghi/resource/CulturalInstituteOrSite/138761,Monumento a Cesare Battisti sul Doss,46.07341,11.112929,via Doss Trento - Trento,38122,Trento,Trento
http://dati.beniculturali.it/mibact/luoghi/resource/CulturalInstituteOrSite/139195,Parco archeologico del Colosseo - Aula Isiaca con Loggia Mattei,41.89103,12.487999,"Santa Maria Nova, 53 - Roma",186,Roma,Roma
http://dati.beniculturali.it/mibact/luoghi/resource/CulturalInstituteOrSite/139195,Parco archeologico del Colosseo - Aula Isiaca con Loggia Mattei,41.89103,12.487999,"Santa Maria Nova, 53 - Roma",186,Roma,Roma
http://dati.beniculturali.it/mibact/luoghi/resource/CulturalInstituteOrSite/139195,Parco archeologico del Colosseo - Aula Isiaca con Loggia Mattei,41.89103,12.487999,"Santa Maria Nova, 53 - Roma",186,Roma,Roma
http://dati.beniculturali.it/mibact/luoghi/resource/CulturalInstituteOrSite/139195,Parco archeologico del Colosseo - Aula Isiaca con Loggia Mattei,41.89103,12.487999,"Santa Maria Nova, 53 - Roma",186,Roma,Roma
http://dati.beniculturali.it/mibact/luoghi/resource/CulturalInstituteOrSite/143478,Chiesa Santa Maria Extra Moenia,42.416588,13.079355,"Via Cotilia, 64 - Antrodoco",2013,Antrodoco,Rieti
http://dati.beniculturali.it/mibact/luoghi/resource/CulturalInstituteOrSite/144043,Santa Maria di Vescovio,42.33124,12.604784,Vocabolo Vescovio - Torri in Sabina,2049,Torri in Sabina,Rieti
http://dati.beniculturali.it/mibact/luoghi/resource/CulturalInstituteOrSite/100912,Centro di Ateneo - Orto botanico dell'Università  di Padova ,45.39953,11.880682,"Via Orto Botanico, 15 - Padova",35123,Padova,Padova
http://dati.beniculturali.it/mibact/luoghi/resource/CulturalInstituteOrSite/136272,Archivio di Stato dell'Aquila. Sezione di Avezzano ,42.02814,13.425312,"piazza Torlonia, 36 - Avezzano",67051,Avezzano,L'Aquila
http://dati.beniculturali.it/mibact/luoghi/resource/CulturalInstituteOrSite/136273,Archivio di Stato dell'Aquila. Sezione di Sulmona,42.04231,13.927826,"viale Sant'Antonio, 30 - Sulmona",67039,Sulmona,L'Aquila
http://dati.beniculturali.it/mibact/luoghi/resource/CulturalInstituteOrSite/136277,Archivio di Stato di Matera ,40.668716,16.60802,"via T. Stigliani, 25 - Matera",75100,Matera,Matera
http://dati.beniculturali.it/mibact/luoghi/resource/CulturalInstituteOrSite/136281,Archivio di Stato di Reggio Calabria. Sezione di Locri ,38.229637,16.257322,"via G. Matteotti, 356 - Locri",89044,Locri,Reggio di Calabria
http://dati.beniculturali.it/mibact/luoghi/resource/CulturalInstituteOrSite/136283,Archivio di Stato di Reggio Calabria. Sezione di Palmi,38.36082,15.857681,"via Carbone, 3 - Palmi",89015,Palmi,Reggio di Calabria
http://dati.beniculturali.it/mibact/luoghi/resource/CulturalInstituteOrSite/136474,Antico Palazzo Comunale - Pinacoteca Matteo Olivero e Torre Civica,44.64326,7.488573,Salita al Castello - Saluzzo,12037,Saluzzo,Cuneo
http://dati.beniculturali.it/mibact/luoghi/resource/CulturalInstituteOrSite/136472,Casa Museo di Silvio Pellico,44.64391,7.490892,Piazzetta dei Mondagli - Saluzzo,12037,Saluzzo,Cuneo
http://dati.beniculturali.it/mibact/luoghi/resource/CulturalInstituteOrSite/129628,Museo dell'Istituto centrale per la grafica,41.90154,12.483486,"Via della Stamperia , 6 - Roma",187,Roma,Roma
http://dati.beniculturali.it/mibact/luoghi/resource/CulturalInstituteOrSite/135431,Cappella della Ss. Annunziata,41.642323,12.907597,"Via dell'Annunziata, 59 - Latina",4010,Latina,Latina
http://dati.beniculturali.it/mibact/luoghi/resource/CulturalInstituteOrSite/140667,MUBA - Museo della Basilica di San Martino,40.706,17.337294,piazzetta Stabile - Martina Franca,74015,Martina Franca,Taranto
http://dati.beniculturali.it/mibact/luoghi/resource/CulturalInstituteOrSite/101494,Museo tuscolano scuderie Aldobrandini,41.814793,12.721445,"Piazza Guglielmo Marconi, 6 - Frascati",44,Frascati,Roma
http://dati.beniculturali.it/mibact/luoghi/resource/CulturalInstituteOrSite/101494,Museo tuscolano scuderie Aldobrandini,41.814793,12.721445,"Piazza Guglielmo Marconi, 6 - Frascati",44,Frascati,Roma
http://dati.beniculturali.it/mibact/luoghi/resource/CulturalInstituteOrSite/101495,Museo del Santuario Madre del Buon consiglio,41.83614,12.973345,"Corso cardinale Vannuttelli, 2 - Genazzano",30,Genazzano,Roma
http://dati.beniculturali.it/mibact/luoghi/resource/CulturalInstituteOrSite/101495,Museo del Santuario Madre del Buon consiglio,41.83614,12.973345,"Corso cardinale Vannuttelli, 2 - Genazzano",30,Genazzano,Roma
http://dati.beniculturali.it/mibact/luoghi/resource/CulturalInstituteOrSite/101495,Museo del Santuario Madre del Buon consiglio,41.83614,12.973345,"Corso cardinale Vannuttelli, 2 - Genazzano",30,Genazzano,Roma
http://dati.beniculturali.it/mibact/luoghi/resource/CulturalInstituteOrSite/101495,Museo del Santuario Madre del Buon consiglio,41.83614,12.973345,"Corso cardinale Vannuttelli, 2 - Genazzano",30,Genazzano,Roma
http://dati.beniculturali.it/mibact/luoghi/resource/CulturalInstituteOrSite/101496,"Antiquarim comunale ""Don Celestino Piccolini""",41.999817,12.726297,"Via Monte Albano, SNC - Guidonia Montecelio",10,Guidonia Montecelio,Roma
http://dati.beniculturali.it/mibact/luoghi/resource/CulturalInstituteOrSite/101496,"Antiquarim comunale ""Don Celestino Piccolini""",41.999817,12.726297,"Via Monte Albano, SNC - Guidonia Montecelio",10,Guidonia Montecelio,Roma
http://dati.beniculturali.it/mibact/luoghi/resource/CulturalInstituteOrSite/101497,Museo civico oraziano,42.072372,12.902432,"Piazza del Palazzo, 3 - Licenza",26,Licenza,Roma
http://dati.beniculturali.it/mibact/luoghi/resource/CulturalInstituteOrSite/101498,"Museo ""Umberto Mastroianni""",41.77009,12.658537,"Largo Jacopa de' Sottesoli snc,  - Marino",47,Marino,Roma
http://dati.beniculturali.it/mibact/luoghi/resource/CulturalInstituteOrSite/101498,"Museo ""Umberto Mastroianni""",41.77009,12.658537,"Largo Jacopa de' Sottesoli snc,  - Marino",47,Marino,Roma
http://dati.beniculturali.it/mibact/luoghi/resource/CulturalInstituteOrSite/101501,Museo di scienze naturali ed ambientali di Mentana,42.03536,12.638628,"Piazza della Repubblica, 22 - Mentana",13,Mentana,Roma
http://dati.beniculturali.it/mibact/luoghi/resource/CulturalInstituteOrSite/101502,Museo nazionale della campagna dell'Agro Romano per la liberazione di Roma,42.035065,12.638916,"Via della Rocca, 2 - Mentana",13,Mentana,Roma
http://dati.beniculturali.it/mibact/luoghi/resource/CulturalInstituteOrSite/101503,Pinacoteca di San Silvestro,41.804977,12.733719,"Via San Silvestro, 72 - Monte Compatri",40,Monte Compatri,Roma
http://dati.beniculturali.it/mibact/luoghi/resource/CulturalInstituteOrSite/101504,Astrolab c/o INAF - Osservatorio astronomico di Roma,41.813126,12.702579,"Via Frascati, 33 - Monte Porzio Catone",40,Monte Porzio Catone,Roma
http://dati.beniculturali.it/mibact/luoghi/resource/CulturalInstituteOrSite/101504,Astrolab c/o INAF - Osservatorio astronomico di Roma,41.813126,12.702579,"Via Frascati, 33 - Monte Porzio Catone",40,Monte Porzio Catone,Roma
http://dati.beniculturali.it/mibact/luoghi/resource/CulturalInstituteOrSite/101507,Parco archeologico del barco borghese,41.814728,12.696909,"Via Frascati, 62 - Monte Porzio Catone",40,Monte Porzio Catone,Roma
http://dati.beniculturali.it/mibact/luoghi/resource/CulturalInstituteOrSite/101509,Museo del fiume di Nazzano,42.228603,12.597355,"Via Mazzini, 4 - Nazzano",60,Nazzano,Roma
http://dati.beniculturali.it/mibact/luoghi/resource/CulturalInstituteOrSite/101509,Museo del fiume di Nazzano,42.228603,12.597355,"Via Mazzini, 4 - Nazzano",60,Nazzano,Roma
http://dati.beniculturali.it/mibact/luoghi/resource/CulturalInstituteOrSite/101509,Museo del fiume di Nazzano,42.228603,12.597355,"Via Mazzini, 4 - Nazzano",60,Nazzano,Roma
http://dati.beniculturali.it/mibact/luoghi/resource/CulturalInstituteOrSite/101509,Museo del fiume di Nazzano,42.228603,12.597355,"Via Mazzini, 4 - Nazzano",60,Nazzano,Roma
http://dati.beniculturali.it/mibact/luoghi/resource/CulturalInstituteOrSite/101511,Museo dello sbarco alleato-22 gennaio 1944,41.45725,12.65759,"Via A. Gramsci, 5 - Nettuno",48,Nettuno,Roma
http://dati.beniculturali.it/mibact/luoghi/resource/CulturalInstituteOrSite/101512,Museo centro studi sulla pittura di paesaggio europea del Lazio,41.85889,13.036815,"Viale Vittorio Veneto, 25 - Olevano Romano",35,Olevano Romano,Roma
http://dati.beniculturali.it/mibact/luoghi/resource/CulturalInstituteOrSite/101513,Fondazione Giovanni Pierluigi da Palestrina,41.838837,12.892099,"Vicolo Pierluigi, 3 - Palestrina",36,Palestrina,Roma
http://dati.beniculturali.it/mibact/luoghi/resource/CulturalInstituteOrSite/101515,Museo diocesano di arte sacra di Palestrina,41.79091,12.823943,"Via Roma, 23 - Palestrina",36,Palestrina,Roma
http://dati.beniculturali.it/mibact/luoghi/resource/CulturalInstituteOrSite/101515,Museo diocesano di arte sacra di Palestrina,41.79091,12.823943,"Via Roma, 23 - Palestrina",36,Palestrina,Roma
http://dati.beniculturali.it/mibact/luoghi/resource/CulturalInstituteOrSite/101516,Museo della canapa di Pisoniano,41.908756,12.957212,"Via S. Maria, 27 - Pisoniano",20,Pisoniano,Roma
http://dati.beniculturali.it/mibact/luoghi/resource/CulturalInstituteOrSite/103952,"Mostra permanente ""La casa delle antiche scatole di latta""",41.93306,12.993667,"Via Del Palazzo, 8 - Gerano",25,Gerano,Roma
http://dati.beniculturali.it/mibact/luoghi/resource/CulturalInstituteOrSite/103953,Museo dell'infiorata,41.933025,12.993471,"Via Del Municipio, 8 - Gerano",25,Gerano,Roma
http://dati.beniculturali.it/mibact/luoghi/resource/CulturalInstituteOrSite/103953,Museo dell'infiorata,41.933025,12.993471,"Via Del Municipio, 8 - Gerano",25,Gerano,Roma
http://dati.beniculturali.it/mibact/luoghi/resource/CulturalInstituteOrSite/103955,Museo delle culture di Villa Garibaldi,42.05959,12.997822,"Via Costanza Garibaldi, 10 - Riofreddo",20,Riofreddo,Roma
http://dati.beniculturali.it/mibact/luoghi/resource/CulturalInstituteOrSite/103955,Museo delle culture di Villa Garibaldi,42.05959,12.997822,"Via Costanza Garibaldi, 10 - Riofreddo",20,Riofreddo,Roma
http://dati.beniculturali.it/mibact/luoghi/resource/CulturalInstituteOrSite/103955,Museo delle culture di Villa Garibaldi,42.05959,12.997822,"Via Costanza Garibaldi, 10 - Riofreddo",20,Riofreddo,Roma
http://dati.beniculturali.it/mibact/luoghi/resource/CulturalInstituteOrSite/103955,Museo delle culture di Villa Garibaldi,42.05959,12.997822,"Via Costanza Garibaldi, 10 - Riofreddo",20,Riofreddo,Roma
http://dati.beniculturali.it/mibact/luoghi/resource/CulturalInstituteOrSite/103955,Museo delle culture di Villa Garibaldi,42.05959,12.997822,"Via Costanza Garibaldi, 10 - Riofreddo",20,Riofreddo,Roma
http://dati.beniculturali.it/mibact/luoghi/resource/CulturalInstituteOrSite/103955,Museo delle culture di Villa Garibaldi,42.05959,12.997822,"Via Costanza Garibaldi, 10 - Riofreddo",20,Riofreddo,Roma
http://dati.beniculturali.it/mibact/luoghi/resource/CulturalInstituteOrSite/103956,"Museo geopaleontologico ""Ardito Desio""",41.847298,12.945667,"Piazza della Torre, 11 - Rocca di Cave",30,Rocca di Cave,Roma
http://dati.beniculturali.it/mibact/luoghi/resource/CulturalInstituteOrSite/103956,"Museo geopaleontologico ""Ardito Desio""",41.847298,12.945667,"Piazza della Torre, 11 - Rocca di Cave",30,Rocca di Cave,Roma
http://dati.beniculturali.it/mibact/luoghi/resource/CulturalInstituteOrSite/103956,"Museo geopaleontologico ""Ardito Desio""",41.847298,12.945667,"Piazza della Torre, 11 - Rocca di Cave",30,Rocca di Cave,Roma
http://dati.beniculturali.it/mibact/luoghi/resource/CulturalInstituteOrSite/103956,"Museo geopaleontologico ""Ardito Desio""",41.847298,12.945667,"Piazza della Torre, 11 - Rocca di Cave",30,Rocca di Cave,Roma
http://dati.beniculturali.it/mibact/luoghi/resource/CulturalInstituteOrSite/104994,Museo naturalistico territoriale,42.071194,12.766566,"Castello Savelli, SNC - Palombara Sabina",18,Palombara Sabina,Roma
http://dati.beniculturali.it/mibact/luoghi/resource/CulturalInstituteOrSite/117102,Biblioteca Statale Annessa al Monumento Nazionale di Grottaferrata,41.787067,12.667435,"Corso del Popolo, 128 - Grottaferrata",46,Grottaferrata,Roma
http://dati.beniculturali.it/mibact/luoghi/resource/CulturalInstituteOrSite/123674,Cimitero monumentale americano,41.467094,12.662804,"Piazzale Kennedy, 1 - Nettuno",48,Nettuno,Roma
http://dati.beniculturali.it/mibact/luoghi/resource/CulturalInstituteOrSite/20063,Villa di Orazio,42.06629,12.901157,"via Licentina, s.n.c. - Licenza",26,Licenza,Roma
http://dati.beniculturali.it/mibact/luoghi/resource/CulturalInstituteOrSite/20284,Museo delle navi romane di Nemi,41.721714,12.701998,"via del Tempio di Diana, 13-15 - Nemi",40,Nemi,Roma
http://dati.beniculturali.it/mibact/luoghi/resource/CulturalInstituteOrSite/20307,Museo archeologico nazionale di Palestrina e Santuario della Fortuna Primigenia,41.84038,12.892525,"piazza della Cortina, 1 - Palestrina",36,Palestrina,Roma
http://dati.beniculturali.it/mibact/luoghi/resource/CulturalInstituteOrSite/20307,Museo archeologico nazionale di Palestrina e Santuario della Fortuna Primigenia,41.84038,12.892525,"piazza della Cortina, 1 - Palestrina",36,Palestrina,Roma
http://dati.beniculturali.it/mibact/luoghi/resource/CulturalInstituteOrSite/20743,Abbazia greca di San Nilo,41.786274,12.66673,"corso del Popolo, 128 - Grottaferrata",46,Grottaferrata,Roma
http://dati.beniculturali.it/mibact/luoghi/resource/CulturalInstituteOrSite/129012,Chiesa di Santa Maria del Carmine,43.76846,11.2438,"Piazza del Carmine, 14 - Firenze",50124,Firenze,Firenze
http://dati.beniculturali.it/mibact/luoghi/resource/CulturalInstituteOrSite/133232,Museo Laboratorio della Civiltà  Contadina,40.66745,16.609383,"Via San Giovanni Vecchio, 60 - Matera",75100,Matera,Matera
http://dati.beniculturali.it/mibact/luoghi/resource/CulturalInstituteOrSite/135125,Istituto Centrale per il Restauro e la Conservazione del Patrimonio Archivistico e Librario,41.89686,12.492531,"Via Milano, 76 - Roma",184,Roma,Roma
http://dati.beniculturali.it/mibact/luoghi/resource/CulturalInstituteOrSite/134669,Necropoli ellenistica ex Caserma Villarey,43.620483,13.517504,Piazza Martelli - Ancona,60100,Ancona,Ancona
http://dati.beniculturali.it/mibact/luoghi/resource/CulturalInstituteOrSite/134751,Museo della Cartapesta,40.35384,18.173994,Viale XXV Luglio - Lecce,73100,Lecce,Lecce
http://dati.beniculturali.it/mibact/luoghi/resource/CulturalInstituteOrSite/134871,Parco archeologico di Collepasso,40.46883,17.274921,Via Rondinelli - Taranto,74121,Taranto,Taranto
http://dati.beniculturali.it/mibact/luoghi/resource/CulturalInstituteOrSite/134815,Fondazione Carnevale di Viareggio,43.893753,10.246682,"Piazza Burlamacco, ,   - Viareggio",55049,Viareggio,Lucca
http://dati.beniculturali.it/mibact/luoghi/resource/CulturalInstituteOrSite/134443,Abbazia di Sassovivo,42.95536,12.72383,"via Sassovivo, 2 - Foligno",6034,Foligno,Perugia
http://dati.beniculturali.it/mibact/luoghi/resource/CulturalInstituteOrSite/134443,Abbazia di Sassovivo,42.95536,12.72383,"via Sassovivo, 2 - Foligno",6034,Foligno,Perugia
http://dati.beniculturali.it/mibact/luoghi/resource/CulturalInstituteOrSite/140954,Ex Chiesa Santa Maria dell'Immacolata Concezione,42.331505,12.267627,"Piazza Santa Maria, 1 - Carbognano",1030,Carbognano,Viterbo
http://dati.beniculturali.it/mibact/luoghi/resource/CulturalInstituteOrSite/108198,Museo di Palazzo Grimani,45.43707,12.342447,"Castello, 4858 - Venezia",30122,Venezia,Venezia
http://dati.beniculturali.it/mibact/luoghi/resource/CulturalInstituteOrSite/108198,Museo di Palazzo Grimani,45.43707,12.342447,"Castello, 4858 - Venezia",30122,Venezia,Venezia
http://dati.beniculturali.it/mibact/luoghi/resource/CulturalInstituteOrSite/135477,Lapidario Dianense del Museo Diocesano di Teggiano,41.70613,15.952917,via Rampa Sant'Angelo - Teggiano,84039,Teggiano,Salerno
http://dati.beniculturali.it/mibact/luoghi/resource/CulturalInstituteOrSite/144346,MUST - Museo Universitario di Scienze della Terra,41.901463,12.512324,"P.le A. Moro, 5 - Roma",185,Roma,Roma
http://dati.beniculturali.it/mibact/luoghi/resource/CulturalInstituteOrSite/137568,Palazzo della Cultura,37.502327,15.082998,"via Vittorio Emanuele II, 121 - Catania",95131,Catania,Catania
http://dati.beniculturali.it/mibact/luoghi/resource/CulturalInstituteOrSite/139239,Parco archeologico Colosseo - Museo Palatino,41.89116,12.48797,"Piazza di S. Maria Nova , 53 - Roma",186,Roma,Roma
http://dati.beniculturali.it/mibact/luoghi/resource/CulturalInstituteOrSite/139374,Parco archeologico del Colosseo - Criptoportico neroniano,41.891224,12.488587,"Piazza di Santa Maria Nova , 53 - Roma",186,Roma,Roma
http://dati.beniculturali.it/mibact/luoghi/resource/CulturalInstituteOrSite/139242,Parco archeologico del Colosseo - Tempio di Romolo,41.89305,12.487421,"Largo della Salara Vecchia, 6 - Roma",186,Roma,Roma
http://dati.beniculturali.it/mibact/luoghi/resource/CulturalInstituteOrSite/141891,Palazzo Economo,45.657417,13.77313,"Piazza della Libertà , 7 - Trieste",34100,Trieste,Trieste
http://dati.beniculturali.it/mibact/luoghi/resource/CulturalInstituteOrSite/141887,Museo di paesaggi e narrazioni (SMO - Slovensko multimedialno okno),46.12693,13.485172,"Via Alpe Adria, 73 - San Pietro al Natisone",33049,San Pietro al Natisone,Udine
http://dati.beniculturali.it/mibact/luoghi/resource/CulturalInstituteOrSite/104454,Palazzo Roverella,45.07058,11.78956,"Via Laurenti, 8/10 - Rovigo",45100,Rovigo,Rovigo
http://dati.beniculturali.it/mibact/luoghi/resource/CulturalInstituteOrSite/102539,Museo dei Cavatappi,44.610634,7.944108,"Piazza Castello, 4,  - Barolo",12060,Barolo,Cuneo
http://dati.beniculturali.it/mibact/luoghi/resource/CulturalInstituteOrSite/102539,Museo dei Cavatappi,44.610634,7.944108,"Piazza Castello, 4,  - Barolo",12060,Barolo,Cuneo
http://dati.beniculturali.it/mibact/luoghi/resource/CulturalInstituteOrSite/131147,Mini Mu,45.65979,13.803186,"Via E. Weiss, 15 - Trieste",34128,Trieste,Trieste
http://dati.beniculturali.it/mibact/luoghi/resource/CulturalInstituteOrSite/131147,Mini Mu,45.65979,13.803186,"Via E. Weiss, 15 - Trieste",34128,Trieste,Trieste
http://dati.beniculturali.it/mibact/luoghi/resource/CulturalInstituteOrSite/131148,Museo beethoveniano di Casa Carrino,45.597904,13.767122,"Via XXV Aprile, 19 - Trieste",34015,Trieste,Trieste
http://dati.beniculturali.it/mibact/luoghi/resource/CulturalInstituteOrSite/131148,Museo beethoveniano di Casa Carrino,45.597904,13.767122,"Via XXV Aprile, 19 - Trieste",34015,Trieste,Trieste
http://dati.beniculturali.it/mibact/luoghi/resource/CulturalInstituteOrSite/131149,"Museo della Comunità  Greco Orientale di Trieste ""Costantino e Mafalda Pisani""",45.65321,13.769912,"Riva Tre Novembre, 7 - Trieste",34121,Trieste,Trieste
http://dati.beniculturali.it/mibact/luoghi/resource/CulturalInstituteOrSite/132841,Museo archeologico nazionale di Cividale del Friuli,46.093594,13.431767,"piazza del Duomo, 13 - Cividale del Friuli",33100,Cividale del Friuli,Udine
http://dati.beniculturali.it/mibact/luoghi/resource/CulturalInstituteOrSite/132851,Museo Federico II - Stupor Mundi,43.524414,13.24522,"Palazzo Ghislieri - Piazza Federico II, 3 - Jesi",60035,Jesi,Ancona
http://dati.beniculturali.it/mibact/luoghi/resource/CulturalInstituteOrSite/136847,Palazzo dei Diamanti,44.84233,11.621204,"corso Ercole I d'Este, 21 - Ferrara",44121,Ferrara,Ferrara
http://dati.beniculturali.it/mibact/luoghi/resource/CulturalInstituteOrSite/143832,Archivio di Stato di Ravenna,44.42035,12.19539,"Piazzetta dell'Esarcato, 1 - Ravenna",48121,Ravenna,Ravenna
http://dati.beniculturali.it/mibact/luoghi/resource/CulturalInstituteOrSite/129866,Area archeologica di Quarto d'Altino,45.542652,12.3978,"via Sant'Eliodoro, 37 - Quarto d'Altino",30020,Quarto d'Altino,Venezia
http://dati.beniculturali.it/mibact/luoghi/resource/CulturalInstituteOrSite/131379,Museo Sà²n de Lenga di Espaci Occitan,44.464985,7.340924,"via Val Maira, 19 - Dronero",12025,Dronero,Cuneo
http://dati.beniculturali.it/mibact/luoghi/resource/CulturalInstituteOrSite/131573,Casale fortificato di Balsignano,41.086365,16.782442,"SP92, 70026 Modugno BA - Bari",70026,Bari,Bari
http://dati.beniculturali.it/mibact/luoghi/resource/CulturalInstituteOrSite/131552,Castello di Calenzano,43.86351,11.161464,"Via dell'Oriolo, 50 - Calenzano",50041,Calenzano,Firenze
http://dati.beniculturali.it/mibact/luoghi/resource/CulturalInstituteOrSite/131559,MuSA - Museo virtuale della scultura e dell'architettura di Pietrasanta,43.955173,10.234322,"Via Sant'Agostino (angolo Via Garibaldi), 61 - Pietrasanta",55045,Pietrasanta,Lucca
http://dati.beniculturali.it/mibact/luoghi/resource/CulturalInstituteOrSite/138297,Palazzo Vivarelli Colonna,43.932266,10.918188,"piazza San Leone, , 1 - Pistoia",51100,Pistoia,Pistoia
http://dati.beniculturali.it/mibact/luoghi/resource/CulturalInstituteOrSite/138297,Palazzo Vivarelli Colonna,43.932266,10.918188,"piazza San Leone, , 1 - Pistoia",51100,Pistoia,Pistoia
http://dati.beniculturali.it/mibact/luoghi/resource/CulturalInstituteOrSite/133630,Parco Paleontologico Astigiano,44.898872,8.196986,"corso Alfieri, 381 - Asti",14100,Asti,Asti
http://dati.beniculturali.it/mibact/luoghi/resource/CulturalInstituteOrSite/133762,Museo delle Civiltà ,41.832603,12.471514,"Piazza Guglielmo Marconi, 14 - Roma",185,Roma,Roma
http://dati.beniculturali.it/mibact/luoghi/resource/CulturalInstituteOrSite/133762,Museo delle Civiltà ,41.832603,12.471514,"Piazza Guglielmo Marconi, 8/10 - Roma",185,Roma,Roma
http://dati.beniculturali.it/mibact/luoghi/resource/CulturalInstituteOrSite/133762,Museo delle Civiltà ,41.832603,12.471514,"Via Merulana, 248 - Roma",185,Roma,Roma
http://dati.beniculturali.it/mibact/luoghi/resource/CulturalInstituteOrSite/133762,Museo delle Civiltà ,41.832603,12.471514,"Viale Lincoln, 3 - Roma",185,Roma,Roma
http://dati.beniculturali.it/mibact/luoghi/resource/CulturalInstituteOrSite/133762,Museo delle Civiltà ,41.832603,12.471514,"Piazza Guglielmo Marconi, 14 - Roma",146,Roma,Roma
http://dati.beniculturali.it/mibact/luoghi/resource/CulturalInstituteOrSite/133762,Museo delle Civiltà ,41.832603,12.471514,"Piazza Guglielmo Marconi, 8/10 - Roma",146,Roma,Roma
http://dati.beniculturali.it/mibact/luoghi/resource/CulturalInstituteOrSite/133762,Museo delle Civiltà ,41.832603,12.471514,"Via Merulana, 248 - Roma",146,Roma,Roma
http://dati.beniculturali.it/mibact/luoghi/resource/CulturalInstituteOrSite/133762,Museo delle Civiltà ,41.832603,12.471514,"Viale Lincoln, 3 - Roma",146,Roma,Roma
http://dati.beniculturali.it/mibact/luoghi/resource/CulturalInstituteOrSite/133762,Museo delle Civiltà ,41.832603,12.471514,"Piazza Guglielmo Marconi, 14 - Roma",185,Roma,Roma
http://dati.beniculturali.it/mibact/luoghi/resource/CulturalInstituteOrSite/133762,Museo delle Civiltà ,41.832603,12.471514,"Piazza Guglielmo Marconi, 8/10 - Roma",185,Roma,Roma
http://dati.beniculturali.it/mibact/luoghi/resource/CulturalInstituteOrSite/133762,Museo delle Civiltà ,41.832603,12.471514,"Via Merulana, 248 - Roma",185,Roma,Roma
http://dati.beniculturali.it/mibact/luoghi/resource/CulturalInstituteOrSite/133762,Museo delle Civiltà ,41.832603,12.471514,"Viale Lincoln, 3 - Roma",185,Roma,Roma
http://dati.beniculturali.it/mibact/luoghi/resource/CulturalInstituteOrSite/133762,Museo delle Civiltà ,41.832603,12.471514,"Piazza Guglielmo Marconi, 14 - Roma",146,Roma,Roma
http://dati.beniculturali.it/mibact/luoghi/resource/CulturalInstituteOrSite/133762,Museo delle Civiltà ,41.832603,12.471514,"Piazza Guglielmo Marconi, 8/10 - Roma",146,Roma,Roma
http://dati.beniculturali.it/mibact/luoghi/resource/CulturalInstituteOrSite/133762,Museo delle Civiltà ,41.832603,12.471514,"Via Merulana, 248 - Roma",146,Roma,Roma
http://dati.beniculturali.it/mibact/luoghi/resource/CulturalInstituteOrSite/133762,Museo delle Civiltà ,41.832603,12.471514,"Viale Lincoln, 3 - Roma",146,Roma,Roma
http://dati.beniculturali.it/mibact/luoghi/resource/CulturalInstituteOrSite/133762,Museo delle Civiltà ,41.832603,12.471514,"Piazza Guglielmo Marconi, 14 - Roma",185,Roma,Roma
http://dati.beniculturali.it/mibact/luoghi/resource/CulturalInstituteOrSite/133762,Museo delle Civiltà ,41.832603,12.471514,"Piazza Guglielmo Marconi, 8/10 - Roma",185,Roma,Roma
http://dati.beniculturali.it/mibact/luoghi/resource/CulturalInstituteOrSite/133762,Museo delle Civiltà ,41.832603,12.471514,"Via Merulana, 248 - Roma",185,Roma,Roma
http://dati.beniculturali.it/mibact/luoghi/resource/CulturalInstituteOrSite/133762,Museo delle Civiltà ,41.832603,12.471514,"Viale Lincoln, 3 - Roma",185,Roma,Roma
http://dati.beniculturali.it/mibact/luoghi/resource/CulturalInstituteOrSite/133762,Museo delle Civiltà ,41.832603,12.471514,"Piazza Guglielmo Marconi, 14 - Roma",146,Roma,Roma
http://dati.beniculturali.it/mibact/luoghi/resource/CulturalInstituteOrSite/133762,Museo delle Civiltà ,41.832603,12.471514,"Piazza Guglielmo Marconi, 8/10 - Roma",146,Roma,Roma
http://dati.beniculturali.it/mibact/luoghi/resource/CulturalInstituteOrSite/133762,Museo delle Civiltà ,41.832603,12.471514,"Via Merulana, 248 - Roma",146,Roma,Roma
http://dati.beniculturali.it/mibact/luoghi/resource/CulturalInstituteOrSite/133762,Museo delle Civiltà ,41.832603,12.471514,"Viale Lincoln, 3 - Roma",146,Roma,Roma
http://dati.beniculturali.it/mibact/luoghi/resource/CulturalInstituteOrSite/133762,Museo delle Civiltà ,41.832603,12.471514,"Piazza Guglielmo Marconi, 14 - Roma",185,Roma,Roma
http://dati.beniculturali.it/mibact/luoghi/resource/CulturalInstituteOrSite/133762,Museo delle Civiltà ,41.832603,12.471514,"Piazza Guglielmo Marconi, 8/10 - Roma",185,Roma,Roma
http://dati.beniculturali.it/mibact/luoghi/resource/CulturalInstituteOrSite/133762,Museo delle Civiltà ,41.832603,12.471514,"Via Merulana, 248 - Roma",185,Roma,Roma
http://dati.beniculturali.it/mibact/luoghi/resource/CulturalInstituteOrSite/133762,Museo delle Civiltà ,41.832603,12.471514,"Viale Lincoln, 3 - Roma",185,Roma,Roma
http://dati.beniculturali.it/mibact/luoghi/resource/CulturalInstituteOrSite/133762,Museo delle Civiltà ,41.832603,12.471514,"Piazza Guglielmo Marconi, 14 - Roma",146,Roma,Roma
http://dati.beniculturali.it/mibact/luoghi/resource/CulturalInstituteOrSite/133762,Museo delle Civiltà ,41.832603,12.471514,"Piazza Guglielmo Marconi, 8/10 - Roma",146,Roma,Roma
http://dati.beniculturali.it/mibact/luoghi/resource/CulturalInstituteOrSite/133762,Museo delle Civiltà ,41.832603,12.471514,"Via Merulana, 248 - Roma",146,Roma,Roma
http://dati.beniculturali.it/mibact/luoghi/resource/CulturalInstituteOrSite/133762,Museo delle Civiltà ,41.832603,12.471514,"Viale Lincoln, 3 - Roma",146,Roma,Roma
http://dati.beniculturali.it/mibact/luoghi/resource/CulturalInstituteOrSite/100000,"Museo civico aufidenate ""Antonio De Nino""",41.734238,14.032534,"Viale Mansueto De Amicis, SNC - Alfedena",67030,Alfedena,L'Aquila
http://dati.beniculturali.it/mibact/luoghi/resource/CulturalInstituteOrSite/100000,"Museo civico aufidenate ""Antonio De Nino""",41.734238,14.032534,"Viale Mansueto De Amicis, SNC - Alfedena",67030,Alfedena,L'Aquila
http://dati.beniculturali.it/mibact/luoghi/resource/CulturalInstituteOrSite/100003,Museo civico etnografico di Castel del Monte,42.36481,13.726747,"Via del Municipio, 5 - Castel del Monte",67023,Castel del Monte,L'Aquila
http://dati.beniculturali.it/mibact/luoghi/resource/CulturalInstituteOrSite/100003,Museo civico etnografico di Castel del Monte,42.36481,13.726747,"Via del Municipio, 5 - Castel del Monte",67023,Castel del Monte,L'Aquila
http://dati.beniculturali.it/mibact/luoghi/resource/CulturalInstituteOrSite/100005,Museo civico aufidenate,41.784336,14.108263,"Contrada della Maddalena, SNC - Castel di Sangro",67031,Castel di Sangro,L'Aquila
http://dati.beniculturali.it/mibact/luoghi/resource/CulturalInstituteOrSite/100005,Museo civico aufidenate,41.784336,14.108263,"Contrada della Maddalena, SNC - Castel di Sangro",67031,Castel di Sangro,L'Aquila
http://dati.beniculturali.it/mibact/luoghi/resource/CulturalInstituteOrSite/100007,Museo civico di Cerchio,42.06468,13.601874,"Piazza Sandro Pertini, SNC - Cerchio",67044,Cerchio,L'Aquila
http://dati.beniculturali.it/mibact/luoghi/resource/CulturalInstituteOrSite/100008,Museo del lupo appenninico,41.766426,13.943778,"Via Santa Lucia, SNC - Civitella Alfedena",67030,Civitella Alfedena,L'Aquila
http://dati.beniculturali.it/mibact/luoghi/resource/CulturalInstituteOrSite/100009,"Museo civico etnografico delle tradizioni popolari ""Alfonso Maria di Nola""",42.03376,13.774808,"Piazza Madonna delle Grazie, SNC - Cocullo",67030,Cocullo,L'Aquila
http://dati.beniculturali.it/mibact/luoghi/resource/CulturalInstituteOrSite/100009,"Museo civico etnografico delle tradizioni popolari ""Alfonso Maria di Nola""",42.03376,13.774808,"Piazza Madonna delle Grazie, SNC - Cocullo",67030,Cocullo,L'Aquila
http://dati.beniculturali.it/mibact/luoghi/resource/CulturalInstituteOrSite/100010,"Museo civico archeologico ""Antonio de Nino""",42.12461,13.843567,"Via Zambeccario,   - Corfinio",67030,Corfinio,L'Aquila
http://dati.beniculturali.it/mibact/luoghi/resource/CulturalInstituteOrSite/100010,"Museo civico archeologico ""Antonio de Nino""",42.12461,13.843567,"Via Zambeccario,   - Corfinio",67030,Corfinio,L'Aquila
http://dati.beniculturali.it/mibact/luoghi/resource/CulturalInstituteOrSite/100016,Museo del camoscio,41.78097,13.829742,",  - Opi",67030,Opi,L'Aquila
http://dati.beniculturali.it/mibact/luoghi/resource/CulturalInstituteOrSite/100017,Casa museo G. Mazzarino,42.028038,13.665535,"Viale Francia,  - Pescina",67057,Pescina,L'Aquila
http://dati.beniculturali.it/mibact/luoghi/resource/CulturalInstituteOrSite/100018,Museo del merletto a tombolo,41.88859,14.064273,",  - Pescocostanzo",67033,Pescocostanzo,L'Aquila
http://dati.beniculturali.it/mibact/luoghi/resource/CulturalInstituteOrSite/100018,Museo del merletto a tombolo,41.88859,14.064273,",  - Pescocostanzo",67033,Pescocostanzo,L'Aquila
http://dati.beniculturali.it/mibact/luoghi/resource/CulturalInstituteOrSite/100019,Museo civico parrocchiale dell'arte presepiale,41.870743,14.066418,"Via Teofilo Pachini, 3 - Rivisondoli",67036,Rivisondoli,L'Aquila
http://dati.beniculturali.it/mibact/luoghi/resource/CulturalInstituteOrSite/100020,Museo civico di documentazione storico-ambientale di Rocca Pia,41.93447,13.977474,"Via del Castello, SNC - Rocca Pia",67030,Rocca Pia,L'Aquila
http://dati.beniculturali.it/mibact/luoghi/resource/CulturalInstituteOrSite/100020,Museo civico di documentazione storico-ambientale di Rocca Pia,41.93447,13.977474,"Via del Castello, SNC - Rocca Pia",67030,Rocca Pia,L'Aquila
http://dati.beniculturali.it/mibact/luoghi/resource/CulturalInstituteOrSite/100021,Museo cultura materiale di San Benedetto in Perillis,42.182087,13.769924,"Via Lago, 8 - San Benedetto in Perillis",67020,San Benedetto in Perillis,L'Aquila
http://dati.beniculturali.it/mibact/luoghi/resource/CulturalInstituteOrSite/100021,Museo cultura materiale di San Benedetto in Perillis,42.182087,13.769924,"Via Lago, 8 - San Benedetto in Perillis",67020,San Benedetto in Perillis,L'Aquila
http://dati.beniculturali.it/mibact/luoghi/resource/CulturalInstituteOrSite/100022,Museo di speleologia V. Rivera e Grotte di Stiffe,42.256294,13.545637,"GROTTE DI STIFFE, Via del Mulino - San Demetrio ne' Vestini",67028,San Demetrio ne' Vestini,L'Aquila
http://dati.beniculturali.it/mibact/luoghi/resource/CulturalInstituteOrSite/100022,Museo di speleologia V. Rivera e Grotte di Stiffe,42.256294,13.545637,"GROTTE DI STIFFE, Via del Mulino - San Demetrio ne' Vestini",67028,San Demetrio ne' Vestini,L'Aquila
http://dati.beniculturali.it/mibact/luoghi/resource/CulturalInstituteOrSite/100023,Museo della lana,41.90175,13.882748,"Calata Sant'Antonio, SNC - Scanno",67038,Scanno,L'Aquila
http://dati.beniculturali.it/mibact/luoghi/resource/CulturalInstituteOrSite/100023,Museo della lana,41.90175,13.882748,"Calata Sant'Antonio, SNC - Scanno",67038,Scanno,L'Aquila
http://dati.beniculturali.it/mibact/luoghi/resource/CulturalInstituteOrSite/100023,Museo della lana,41.90175,13.882748,"Calata Sant'Antonio, SNC - Scanno",67038,Scanno,L'Aquila
http://dati.beniculturali.it/mibact/luoghi/resource/CulturalInstituteOrSite/100023,Museo della lana,41.90175,13.882748,"Calata Sant'Antonio, SNC - Scanno",67038,Scanno,L'Aquila
http://dati.beniculturali.it/mibact/luoghi/resource/CulturalInstituteOrSite/100026,Museo civico Santissima Annunziata,42.04683,13.925648,"Corso Ovidio, SNC - Sulmona",67039,Sulmona,L'Aquila
http://dati.beniculturali.it/mibact/luoghi/resource/CulturalInstituteOrSite/100026,Museo civico Santissima Annunziata,42.04683,13.925648,"Corso Ovidio, SNC - Sulmona",67039,Sulmona,L'Aquila
http://dati.beniculturali.it/mibact/luoghi/resource/CulturalInstituteOrSite/100027,Museo civico del costume popolare abruzzese molisano e della transumanza,42.04789,13.924167,"Via Mazara,  - Sulmona",67039,Sulmona,L'Aquila
http://dati.beniculturali.it/mibact/luoghi/resource/CulturalInstituteOrSite/100027,Museo civico del costume popolare abruzzese molisano e della transumanza,42.04789,13.924167,"Via Mazara,  - Sulmona",67039,Sulmona,L'Aquila
http://dati.beniculturali.it/mibact/luoghi/resource/CulturalInstituteOrSite/100028,Museo dell'arte e della tecnologia confettiera,42.038643,13.922411,"Via Introdacqua, 55 - Sulmona",67039,Sulmona,L'Aquila
http://dati.beniculturali.it/mibact/luoghi/resource/CulturalInstituteOrSite/100029,Museo delle tecniche fotografiche,42.05349,13.922047,"Via Galileo Galilei, 10 - Sulmona",67039,Sulmona,L'Aquila
http://dati.beniculturali.it/mibact/luoghi/resource/CulturalInstituteOrSite/100029,Museo delle tecniche fotografiche,42.05349,13.922047,"Via Galileo Galilei, 10 - Sulmona",67039,Sulmona,L'Aquila
http://dati.beniculturali.it/mibact/luoghi/resource/CulturalInstituteOrSite/100030,Museo ambientale di storia naturale,42.049007,13.925863,"Via Angeloni, 11 - Sulmona",67039,Sulmona,L'Aquila
http://dati.beniculturali.it/mibact/luoghi/resource/CulturalInstituteOrSite/100030,Museo ambientale di storia naturale,42.049007,13.925863,"Via Angeloni, 11 - Sulmona",67039,Sulmona,L'Aquila
http://dati.beniculturali.it/mibact/luoghi/resource/CulturalInstituteOrSite/100031,Museo 'in situ' Sala arianna del Museo archeologico,42.04816,13.92503,"Corso Ovidio,  - Sulmona",64100,Sulmona,L'Aquila
http://dati.beniculturali.it/mibact/luoghi/resource/CulturalInstituteOrSite/100031,Museo 'in situ' Sala arianna del Museo archeologico,42.04816,13.92503,"Corso Ovidio,  - Sulmona",64100,Sulmona,L'Aquila
http://dati.beniculturali.it/mibact/luoghi/resource/CulturalInstituteOrSite/100032,Polo museale civico diocesano - Monastero di Santa Chiara,42.048107,13.925796,"Piazza G. Garibaldi,  - Sulmona",67039,Sulmona,L'Aquila
http://dati.beniculturali.it/mibact/luoghi/resource/CulturalInstituteOrSite/100032,Polo museale civico diocesano - Monastero di Santa Chiara,42.048107,13.925796,"Piazza G. Garibaldi,  - Sulmona",67039,Sulmona,L'Aquila
http://dati.beniculturali.it/mibact/luoghi/resource/CulturalInstituteOrSite/100033,Museo orientale e santuario di Santa Maria dell'Oriente,42.057117,13.278472,"Via Oriente, 148 - Tagliacozzo",67069,Tagliacozzo,L'Aquila
http://dati.beniculturali.it/mibact/luoghi/resource/CulturalInstituteOrSite/100033,Museo orientale e santuario di Santa Maria dell'Oriente,42.057117,13.278472,"Via Oriente, 148 - Tagliacozzo",67069,Tagliacozzo,L'Aquila
http://dati.beniculturali.it/mibact/luoghi/resource/CulturalInstituteOrSite/100033,Museo orientale e santuario di Santa Maria dell'Oriente,42.057117,13.278472,"Via Oriente, 148 - Tagliacozzo",67069,Tagliacozzo,L'Aquila
http://dati.beniculturali.it/mibact/luoghi/resource/CulturalInstituteOrSite/100033,Museo orientale e santuario di Santa Maria dell'Oriente,42.057117,13.278472,"Via Oriente, 148 - Tagliacozzo",67069,Tagliacozzo,L'Aquila
http://dati.beniculturali.it/mibact/luoghi/resource/CulturalInstituteOrSite/100034,Museo delle tradizioni del lavoro,41.935276,13.838085,"Piazza Municipio, SNC - Villalago",67030,Villalago,L'Aquila
http://dati.beniculturali.it/mibact/luoghi/resource/CulturalInstituteOrSite/100035,Centro Orso,41.866604,13.626614,"Via Colle di Marco Andrea,  - Villavallelonga",67050,Villavallelonga,L'Aquila
http://dati.beniculturali.it/mibact/luoghi/resource/CulturalInstituteOrSite/100036,"Mostra permanente ""Futuro remoto""",41.776493,13.926615,"Via Benedetto Virgilio, 19 - Villetta Barrea",67030,Villetta Barrea,L'Aquila
http://dati.beniculturali.it/mibact/luoghi/resource/CulturalInstituteOrSite/100036,"Mostra permanente ""Futuro remoto""",41.776493,13.926615,"Via Benedetto Virgilio, 19 - Villetta Barrea",67030,Villetta Barrea,L'Aquila
http://dati.beniculturali.it/mibact/luoghi/resource/CulturalInstituteOrSite/100037,Museo della transumanza,41.774117,13.944522,"Via Roma,  - Villetta Barrea",67030,Villetta Barrea,L'Aquila
http://dati.beniculturali.it/mibact/luoghi/resource/CulturalInstituteOrSite/100038,Museo etnografico - Associazione Amuset,42.035316,14.368148,"Via Roma, SNC - Bomba",66042,Bomba,Chieti
http://dati.beniculturali.it/mibact/luoghi/resource/CulturalInstituteOrSite/100039,Casa natale di S. Camillo de Lellis,42.305862,14.182742,"Via Cappellina, SNC - Bucchianico",66011,Bucchianico,Chieti
http://dati.beniculturali.it/mibact/luoghi/resource/CulturalInstituteOrSite/100040,Museo della guerra per la pace,42.29569,14.302502,"Via Roma, 7 - Canosa Sannita",66010,Canosa Sannita,Chieti
http://dati.beniculturali.it/mibact/luoghi/resource/CulturalInstituteOrSite/100040,Museo della guerra per la pace,42.29569,14.302502,"Via Roma, 7 - Canosa Sannita",66010,Canosa Sannita,Chieti
http://dati.beniculturali.it/mibact/luoghi/resource/CulturalInstituteOrSite/100041,Centro di documentazione permanente sulle case di terra cruda,42.30904,14.062371,"Via Francesco Paolo Michetti, 1 - Casalincontrada",66012,Casalincontrada,Chieti
http://dati.beniculturali.it/mibact/luoghi/resource/CulturalInstituteOrSite/100043,Museo delle tradizioni familiari,41.86724,14.451519,"Via Colle San Rocco, 10 - Castiglione Messer Marino",66033,Castiglione Messer Marino,Chieti
http://dati.beniculturali.it/mibact/luoghi/resource/CulturalInstituteOrSite/100044,Museo d'arte Costantino Barbella,42.350086,14.167604,"Via Cesare De Lollis, 10 - Chieti",66100,Chieti,Chieti
http://dati.beniculturali.it/mibact/luoghi/resource/CulturalInstituteOrSite/100044,Museo d'arte Costantino Barbella,42.350086,14.167604,"Via Cesare De Lollis, 10 - Chieti",66100,Chieti,Chieti
http://dati.beniculturali.it/mibact/luoghi/resource/CulturalInstituteOrSite/100045,Museo universitario d'Abruzzo - Museo di storia delle scienze biomediche,42.35179,14.167151,"Piazza Trento e Trieste, SNC - Chieti",66100,Chieti,Chieti
http://dati.beniculturali.it/mibact/luoghi/resource/CulturalInstituteOrSite/100045,Museo universitario d'Abruzzo - Museo di storia delle scienze biomediche,42.35179,14.167151,"Piazza Trento e Trieste, SNC - Chieti",66100,Chieti,Chieti
http://dati.beniculturali.it/mibact/luoghi/resource/CulturalInstituteOrSite/100045,Museo universitario d'Abruzzo - Museo di storia delle scienze biomediche,42.35179,14.167151,"Piazza Trento e Trieste, SNC - Chieti",66100,Chieti,Chieti
http://dati.beniculturali.it/mibact/luoghi/resource/CulturalInstituteOrSite/100045,Museo universitario d'Abruzzo - Museo di storia delle scienze biomediche,42.35179,14.167151,"Piazza Trento e Trieste, SNC - Chieti",66100,Chieti,Chieti
http://dati.beniculturali.it/mibact/luoghi/resource/CulturalInstituteOrSite/100046,Museo dell'Abruzzo bizantino ed alto medioevo,42.289978,14.323218,"Villa Selgaroli,  - Crecchio",66014,Crecchio,Chieti
http://dati.beniculturali.it/mibact/luoghi/resource/CulturalInstituteOrSite/100046,Museo dell'Abruzzo bizantino ed alto medioevo,42.289978,14.323218,"Villa Selgaroli,  - Crecchio",66014,Crecchio,Chieti
http://dati.beniculturali.it/mibact/luoghi/resource/CulturalInstituteOrSite/100046,Museo dell'Abruzzo bizantino ed alto medioevo,42.289978,14.323218,"Villa Selgaroli,  - Crecchio",66014,Crecchio,Chieti
http://dati.beniculturali.it/mibact/luoghi/resource/CulturalInstituteOrSite/100046,Museo dell'Abruzzo bizantino ed alto medioevo,42.289978,14.323218,"Villa Selgaroli,  - Crecchio",66014,Crecchio,Chieti
http://dati.beniculturali.it/mibact/luoghi/resource/CulturalInstituteOrSite/100047,Raccolta comunale di beni culturali di Crecchio,42.29696,14.326282,"Piazza Castello,  - Crecchio",66014,Crecchio,Chieti
http://dati.beniculturali.it/mibact/luoghi/resource/CulturalInstituteOrSite/100047,Raccolta comunale di beni culturali di Crecchio,42.29696,14.326282,"Piazza Castello,  - Crecchio",66014,Crecchio,Chieti
http://dati.beniculturali.it/mibact/luoghi/resource/CulturalInstituteOrSite/100048,Museo naturalistico archeologico di Fara San Martino,42.09037,14.205687,"Piazza Municipio,  - Fara San Martino",66015,Fara San Martino,Chieti
http://dati.beniculturali.it/mibact/luoghi/resource/CulturalInstituteOrSite/100048,Museo naturalistico archeologico di Fara San Martino,42.09037,14.205687,"Piazza Municipio,  - Fara San Martino",66015,Fara San Martino,Chieti
http://dati.beniculturali.it/mibact/luoghi/resource/CulturalInstituteOrSite/100049,"Fondazione Michetti ""Mu.Mi.""",42.421524,14.287307,"Piazza San Domenico, 1 - Francavilla al Mare",66023,Francavilla al Mare,Chieti
http://dati.beniculturali.it/mibact/luoghi/resource/CulturalInstituteOrSite/100049,"Fondazione Michetti ""Mu.Mi.""",42.421524,14.287307,"Piazza San Domenico, 1 - Francavilla al Mare",66023,Francavilla al Mare,Chieti
http://dati.beniculturali.it/mibact/luoghi/resource/CulturalInstituteOrSite/100051,Museo del Duomo di Guardiagrele,42.189816,14.219946,"Piazza Santa Maria Maggiore,  - Guardiagrele",66016,Guardiagrele,Chieti
http://dati.beniculturali.it/mibact/luoghi/resource/CulturalInstituteOrSite/100051,Museo del Duomo di Guardiagrele,42.189816,14.219946,"Piazza Santa Maria Maggiore,  - Guardiagrele",66016,Guardiagrele,Chieti
http://dati.beniculturali.it/mibact/luoghi/resource/CulturalInstituteOrSite/100053,Centro documentazione museale S. Nicola,42.233173,14.391378,"Via Garibaldi, SNC - Lanciano",66034,Lanciano,Chieti
http://dati.beniculturali.it/mibact/luoghi/resource/CulturalInstituteOrSite/100053,Centro documentazione museale S. Nicola,42.233173,14.391378,"Via Garibaldi, SNC - Lanciano",66034,Lanciano,Chieti
http://dati.beniculturali.it/mibact/luoghi/resource/CulturalInstituteOrSite/100054,Museo diocesano di Lanciano e sezione di Ortona,42.229504,14.386687,"Via Finamore, 32 - Lanciano",66034,Lanciano,Chieti
http://dati.beniculturali.it/mibact/luoghi/resource/CulturalInstituteOrSite/100054,Museo diocesano di Lanciano e sezione di Ortona,42.229504,14.386687,"Via Finamore, 32 - Lanciano",66034,Lanciano,Chieti
http://dati.beniculturali.it/mibact/luoghi/resource/CulturalInstituteOrSite/100055,Polo museale Santo Spirito - Civico museo archeologico,42.23164,14.388861,"Via Cavour, 13 - Lanciano",66034,Lanciano,Chieti
http://dati.beniculturali.it/mibact/luoghi/resource/CulturalInstituteOrSite/100055,Polo museale Santo Spirito - Civico museo archeologico,42.23164,14.388861,"Via Cavour, 13 - Lanciano",66034,Lanciano,Chieti
http://dati.beniculturali.it/mibact/luoghi/resource/CulturalInstituteOrSite/100056,Museo per l'economia tra antichità  e rinascimento,42.089718,14.652195,"Castello Caldoresco Medievala,  - Monteodorisio",66050,Monteodorisio,Chieti
http://dati.beniculturali.it/mibact/luoghi/resource/CulturalInstituteOrSite/100056,Museo per l'economia tra antichità  e rinascimento,42.089718,14.652195,"Castello Caldoresco Medievala,  - Monteodorisio",66050,Monteodorisio,Chieti
http://dati.beniculturali.it/mibact/luoghi/resource/CulturalInstituteOrSite/100057,Museo della battaglia di Ortona,42.353237,14.403678,"Corso Garibaldi, 19 - Ortona",66026,Ortona,Chieti
http://dati.beniculturali.it/mibact/luoghi/resource/CulturalInstituteOrSite/100058,Museo diocesano di Ortona,42.35691,14.404914,"Piazza San Tommaso, 1 - Ortona",66026,Ortona,Chieti
http://dati.beniculturali.it/mibact/luoghi/resource/CulturalInstituteOrSite/100058,Museo diocesano di Ortona,42.35691,14.404914,"Piazza San Tommaso, 1 - Ortona",66026,Ortona,Chieti
http://dati.beniculturali.it/mibact/luoghi/resource/CulturalInstituteOrSite/100058,Museo diocesano di Ortona,42.35691,14.404914,"Piazza San Tommaso, 1 - Ortona",66026,Ortona,Chieti
http://dati.beniculturali.it/mibact/luoghi/resource/CulturalInstituteOrSite/100058,Museo diocesano di Ortona,42.35691,14.404914,"Piazza San Tommaso, 1 - Ortona",66026,Ortona,Chieti
http://dati.beniculturali.it/mibact/luoghi/resource/CulturalInstituteOrSite/100059,Museo musicale d'Abruzzo archivio F. P. Tosti - Palazzo Corvo,42.216022,14.39083,"Corso Matteotti, SNC - Ortona",66034,Ortona,Chieti
http://dati.beniculturali.it/mibact/luoghi/resource/CulturalInstituteOrSite/100059,Museo musicale d'Abruzzo archivio F. P. Tosti - Palazzo Corvo,42.216022,14.39083,"Corso Matteotti, SNC - Ortona",66034,Ortona,Chieti
http://dati.beniculturali.it/mibact/luoghi/resource/CulturalInstituteOrSite/100060,"Museo dell'orso marsicano ""MOM""",41.984074,14.138778,"Loc. S. Antonio,  - Palena",66017,Palena,Chieti
http://dati.beniculturali.it/mibact/luoghi/resource/CulturalInstituteOrSite/100061,Museo geopaleontologico Alto Aventino,41.984074,14.138778,",  - Palena",66017,Palena,Chieti
http://dati.beniculturali.it/mibact/luoghi/resource/CulturalInstituteOrSite/100062,Museo dell'arte contadina - Museo dei castelli abbandonati,41.939434,14.581582,"Castello Marchesale,  - Palmoli",66050,Palmoli,Chieti
http://dati.beniculturali.it/mibact/luoghi/resource/CulturalInstituteOrSite/100063,Pinacoteca e centro documentale della ceramica,42.21479,14.188583,"Piazza Cappelletti, 4 - Rapino",66010,Rapino,Chieti
http://dati.beniculturali.it/mibact/luoghi/resource/CulturalInstituteOrSite/100063,Pinacoteca e centro documentale della ceramica,42.21479,14.188583,"Piazza Cappelletti, 4 - Rapino",66010,Rapino,Chieti
http://dati.beniculturali.it/mibact/luoghi/resource/CulturalInstituteOrSite/100065,Museo civico Porta della terra e Parco archeologico del Quadrilatero,42.05058,14.731499,"Via Istonia, 1 - San Salvo",66050,San Salvo,Chieti
http://dati.beniculturali.it/mibact/luoghi/resource/CulturalInstituteOrSite/100065,Museo civico Porta della terra e Parco archeologico del Quadrilatero,42.05058,14.731499,"Via Istonia, 1 - San Salvo",66050,San Salvo,Chieti
http://dati.beniculturali.it/mibact/luoghi/resource/CulturalInstituteOrSite/100066,Museo Palazzo de Titta,42.16795,14.330805,"Via Roma, 1 - Sant'Eusanio del Sangro",66037,Sant'Eusanio del Sangro,Chieti
http://dati.beniculturali.it/mibact/luoghi/resource/CulturalInstituteOrSite/100068,Palazzo d'Avalos - Musei civici,42.111843,14.70951,"Piazza Lucio Valerio Pudente, 1 - Vasto",66054,Vasto,Chieti
http://dati.beniculturali.it/mibact/luoghi/resource/CulturalInstituteOrSite/100068,Palazzo d'Avalos - Musei civici,42.111843,14.70951,"Piazza Lucio Valerio Pudente, 1 - Vasto",66054,Vasto,Chieti
http://dati.beniculturali.it/mibact/luoghi/resource/CulturalInstituteOrSite/100068,Palazzo d'Avalos - Musei civici,42.111843,14.70951,"Piazza Lucio Valerio Pudente, 1 - Vasto",66054,Vasto,Chieti
http://dati.beniculturali.it/mibact/luoghi/resource/CulturalInstituteOrSite/100068,Palazzo d'Avalos - Musei civici,42.111843,14.70951,"Piazza Lucio Valerio Pudente, 1 - Vasto",66054,Vasto,Chieti
http://dati.beniculturali.it/mibact/luoghi/resource/CulturalInstituteOrSite/100070,Museo civico l. Chiavetta,42.51924,14.060166,"Via del Grottone, SNC - Città  Sant'Angelo",65013,Città  Sant'Angelo,Pescara
http://dati.beniculturali.it/mibact/luoghi/resource/CulturalInstituteOrSite/100071,Museo laboratorio d'arte contemporanea - Ex manifattura tabacchi,42.517273,14.05918,"Vico Lupinato, 1 - Città  Sant'Angelo",65013,Città  Sant'Angelo,Pescara
http://dati.beniculturali.it/mibact/luoghi/resource/CulturalInstituteOrSite/100073,Museo e archivio degli artisti abruzzesi contemporanei - Castello di nocciano,42.334198,13.984325,"Largo Madonna del Piano, 1 - Nocciano",65010,Nocciano,Pescara
http://dati.beniculturali.it/mibact/luoghi/resource/CulturalInstituteOrSite/100073,Museo e archivio degli artisti abruzzesi contemporanei - Castello di nocciano,42.334198,13.984325,"Largo Madonna del Piano, 1 - Nocciano",65010,Nocciano,Pescara
http://dati.beniculturali.it/mibact/luoghi/resource/CulturalInstituteOrSite/100074,"Museo archeologico civico-diocesano ""G. B. Leopardi""",42.456,13.927105,"Piazza del Duomo, 7 - Penne",65017,Penne,Pescara
http://dati.beniculturali.it/mibact/luoghi/resource/CulturalInstituteOrSite/100074,"Museo archeologico civico-diocesano ""G. B. Leopardi""",42.456,13.927105,"Piazza del Duomo, 7 - Penne",65017,Penne,Pescara
http://dati.beniculturali.it/mibact/luoghi/resource/CulturalInstituteOrSite/100075,Museo civico Basilio Cascella,42.461483,14.216434,"Viale Marconi, 45 - Pescara",65121,Pescara,Pescara
http://dati.beniculturali.it/mibact/luoghi/resource/CulturalInstituteOrSite/100075,Museo civico Basilio Cascella,42.461483,14.216434,"Viale Marconi, 45 - Pescara",65121,Pescara,Pescara
http://dati.beniculturali.it/mibact/luoghi/resource/CulturalInstituteOrSite/100076,Museo d'arte moderna Vittoria Colonna,42.471607,14.212878,"Via Gramsci, 1 - Pescara",65100,Pescara,Pescara
http://dati.beniculturali.it/mibact/luoghi/resource/CulturalInstituteOrSite/100077,Museo delle genti d'Abruzzo,42.461647,14.212355,"Via delle Caserme, 24 - Pescara",65127,Pescara,Pescara
http://dati.beniculturali.it/mibact/luoghi/resource/CulturalInstituteOrSite/100077,Museo delle genti d'Abruzzo,42.461647,14.212355,"Via delle Caserme, 24 - Pescara",65127,Pescara,Pescara
http://dati.beniculturali.it/mibact/luoghi/resource/CulturalInstituteOrSite/100077,Museo delle genti d'Abruzzo,42.461647,14.212355,"Via delle Caserme, 24 - Pescara",65127,Pescara,Pescara
http://dati.beniculturali.it/mibact/luoghi/resource/CulturalInstituteOrSite/100077,Museo delle genti d'Abruzzo,42.461647,14.212355,"Via delle Caserme, 24 - Pescara",65127,Pescara,Pescara
http://dati.beniculturali.it/mibact/luoghi/resource/CulturalInstituteOrSite/100078,Museo Villa Urania - Antiche maioliche di Castelli,42.47151,14.20713,"Via Piave, 139 - Pescara",65122,Pescara,Pescara
http://dati.beniculturali.it/mibact/luoghi/resource/CulturalInstituteOrSite/100078,Museo Villa Urania - Antiche maioliche di Castelli,42.47151,14.20713,"Via Piave, 139 - Pescara",65122,Pescara,Pescara
http://dati.beniculturali.it/mibact/luoghi/resource/CulturalInstituteOrSite/100079,Museo delle tradizioni ed arti contadine,42.476116,13.991923,"Viale dei Pini, 17 - Picciano",65010,Picciano,Pescara
http://dati.beniculturali.it/mibact/luoghi/resource/CulturalInstituteOrSite/100081,Eremi celestiniani Parco Maiella,42.2139,14.024226,"Via De Horatiis, 1 - Roccamorice",65020,Roccamorice,Pescara
http://dati.beniculturali.it/mibact/luoghi/resource/CulturalInstituteOrSite/100082,Collezione di icone,42.32248,14.046214,Piazza Skanderberg - Rosciano,65010,Rosciano,Pescara
http://dati.beniculturali.it/mibact/luoghi/resource/CulturalInstituteOrSite/100085,"Pinacoteca dantesca ""F. Bellonzi""",42.24214,13.925671,"Via della Carrozza, 22 - Torre de' Passeri",65029,Torre de' Passeri,Pescara
http://dati.beniculturali.it/mibact/luoghi/resource/CulturalInstituteOrSite/100086,"Museo archeologico civico ""De Albentiis - Tascini - De Galitis""",42.580597,13.975798,"Via De Litio, SNC - Atri",64032,Atri,Teramo
http://dati.beniculturali.it/mibact/luoghi/resource/CulturalInstituteOrSite/100086,"Museo archeologico civico ""De Albentiis - Tascini - De Galitis""",42.580597,13.975798,"Via De Litio, SNC - Atri",64032,Atri,Teramo
http://dati.beniculturali.it/mibact/luoghi/resource/CulturalInstituteOrSite/100087,Museo capitolare,42.580597,13.975798,"Via dei Musei, SNC - Atri",64032,Atri,Teramo
http://dati.beniculturali.it/mibact/luoghi/resource/CulturalInstituteOrSite/100087,Museo capitolare,42.580597,13.975798,"Via dei Musei, SNC - Atri",64032,Atri,Teramo
http://dati.beniculturali.it/mibact/luoghi/resource/CulturalInstituteOrSite/100088,Museo civico etnografico di Atri,42.5802,13.981002,"Piazza S. Pietro, SNC - Atri",64032,Atri,Teramo
http://dati.beniculturali.it/mibact/luoghi/resource/CulturalInstituteOrSite/100088,Museo civico etnografico di Atri,42.5802,13.981002,"Piazza S. Pietro, SNC - Atri",64032,Atri,Teramo
http://dati.beniculturali.it/mibact/luoghi/resource/CulturalInstituteOrSite/100089,"Museo didattico degli strumenti musicali, medievali e rinascimentali",42.580597,13.975798,"Piazza Duchi D'Acqua Viva, snc - Atri",64032,Atri,Teramo
http://dati.beniculturali.it/mibact/luoghi/resource/CulturalInstituteOrSite/100090,Palazzo ducale dei Duchi d'Acquaviva,42.580597,13.975798,"Piazza Duchi d'Acquaviva, SNC - Atri",64032,Atri,Teramo
http://dati.beniculturali.it/mibact/luoghi/resource/CulturalInstituteOrSite/100090,Palazzo ducale dei Duchi d'Acquaviva,42.580597,13.975798,"Piazza Duchi d'Acquaviva, SNC - Atri",64032,Atri,Teramo
http://dati.beniculturali.it/mibact/luoghi/resource/CulturalInstituteOrSite/100090,Palazzo ducale dei Duchi d'Acquaviva,42.580597,13.975798,"Piazza Duchi d'Acquaviva, SNC - Atri",64032,Atri,Teramo
http://dati.beniculturali.it/mibact/luoghi/resource/CulturalInstituteOrSite/100090,Palazzo ducale dei Duchi d'Acquaviva,42.580597,13.975798,"Piazza Duchi d'Acquaviva, SNC - Atri",64032,Atri,Teramo
http://dati.beniculturali.it/mibact/luoghi/resource/CulturalInstituteOrSite/100091,Museo delle ceramiche di Castelli,42.484573,13.711761,C.da Convento - Castelli,64041,Castelli,Teramo
http://dati.beniculturali.it/mibact/luoghi/resource/CulturalInstituteOrSite/100091,Museo delle ceramiche di Castelli,42.484573,13.711761,C.da Convento - Castelli,64041,Castelli,Teramo
http://dati.beniculturali.it/mibact/luoghi/resource/CulturalInstituteOrSite/100092,Raccolta internazionale d'arte ceramica contemporanea,42.484573,13.711761,"Via Convento, 9 - Castelli",64041,Castelli,Teramo
http://dati.beniculturali.it/mibact/luoghi/resource/CulturalInstituteOrSite/100092,Raccolta internazionale d'arte ceramica contemporanea,42.484573,13.711761,"Via Convento, 9 - Castelli",64041,Castelli,Teramo
http://dati.beniculturali.it/mibact/luoghi/resource/CulturalInstituteOrSite/100093,Museo delle armi e delle mappe antiche della fortezza di Civitella del Tronto,42.773052,13.676165,"Fortezza Spagnola,  - Civitella del Tronto",64010,Civitella del Tronto,Teramo
http://dati.beniculturali.it/mibact/luoghi/resource/CulturalInstituteOrSite/100093,Museo delle armi e delle mappe antiche della fortezza di Civitella del Tronto,42.773052,13.676165,"Fortezza Spagnola,  - Civitella del Tronto",64010,Civitella del Tronto,Teramo
http://dati.beniculturali.it/mibact/luoghi/resource/CulturalInstituteOrSite/100094,Museo della civiltà  contadina in Val Vibrata,42.83447,13.801023,"Via San Giuseppe, 26 - Controguerra",64010,Controguerra,Teramo
http://dati.beniculturali.it/mibact/luoghi/resource/CulturalInstituteOrSite/100096,Casa Gaetano Braga - Sistema museale Musei civici Giulianova,42.752766,13.956576,"Corso Garibaldi, 121/123 - Giulianova",64021,Giulianova,Teramo
http://dati.beniculturali.it/mibact/luoghi/resource/CulturalInstituteOrSite/100097,Fondazione Museo d'arte dello splendore,42.757244,13.952749,"Viale dello Splendore, 112 - Giulianova",64021,Giulianova,Teramo
http://dati.beniculturali.it/mibact/luoghi/resource/CulturalInstituteOrSite/100097,Fondazione Museo d'arte dello splendore,42.757244,13.952749,"Viale dello Splendore, 112 - Giulianova",64021,Giulianova,Teramo
http://dati.beniculturali.it/mibact/luoghi/resource/CulturalInstituteOrSite/100098,"Gipsoteca civica ""Raffaello Pagliaccetti""",42.753815,13.966505,"Piazza della Libertà , SNC - Giulianova",64021,Giulianova,Teramo
http://dati.beniculturali.it/mibact/luoghi/resource/CulturalInstituteOrSite/100098,"Gipsoteca civica ""Raffaello Pagliaccetti""",42.753815,13.966505,"Piazza della Libertà , SNC - Giulianova",64021,Giulianova,Teramo
http://dati.beniculturali.it/mibact/luoghi/resource/CulturalInstituteOrSite/100099,Museo archeologico Il bianco - Sistema museale Musei civici Giulianova,42.75255,13.962371,"Via del Popolo incrocio Via Acquaviva, SNC - Giulianova",64021,Giulianova,Teramo
http://dati.beniculturali.it/mibact/luoghi/resource/CulturalInstituteOrSite/100100,Museo Cappella de' Bartolomei,42.753815,13.966505,"Piazza della Libertà , SNC - Giulianova",64021,Giulianova,Teramo
http://dati.beniculturali.it/mibact/luoghi/resource/CulturalInstituteOrSite/100100,Museo Cappella de' Bartolomei,42.753815,13.966505,"Piazza della Libertà , SNC - Giulianova",64021,Giulianova,Teramo
http://dati.beniculturali.it/mibact/luoghi/resource/CulturalInstituteOrSite/100101,Museo Stauros di arte sacra contemporanea,42.501286,13.661188,"Santuario di San Gabriele dell'Addolorata, 187 - Isola del Gran Sasso d'Italia",64045,Isola del Gran Sasso d'Italia,Teramo
http://dati.beniculturali.it/mibact/luoghi/resource/CulturalInstituteOrSite/100101,Museo Stauros di arte sacra contemporanea,42.501286,13.661188,"Santuario di San Gabriele dell'Addolorata, 187 - Isola del Gran Sasso d'Italia",64045,Isola del Gran Sasso d'Italia,Teramo
http://dati.beniculturali.it/mibact/luoghi/resource/CulturalInstituteOrSite/100101,Museo Stauros di arte sacra contemporanea,42.501286,13.661188,"Santuario di San Gabriele dell'Addolorata, 187 - Isola del Gran Sasso d'Italia",64045,Isola del Gran Sasso d'Italia,Teramo
http://dati.beniculturali.it/mibact/luoghi/resource/CulturalInstituteOrSite/100101,Museo Stauros di arte sacra contemporanea,42.501286,13.661188,"Santuario di San Gabriele dell'Addolorata, 187 - Isola del Gran Sasso d'Italia",64045,Isola del Gran Sasso d'Italia,Teramo
http://dati.beniculturali.it/mibact/luoghi/resource/CulturalInstituteOrSite/100102,Museo delle arti e civiltà  contadine,42.66392,13.919568,"Piazza Duca degli Abruzzi, 1 - Morro d'Oro",64020,Morro d'Oro,Teramo
http://dati.beniculturali.it/mibact/luoghi/resource/CulturalInstituteOrSite/100103,Museo di scienze naturali di Mosciano Sant'Angelo,42.743538,13.888583,"Contrada Colle Leone, SNC - Mosciano Sant'Angelo",64023,Mosciano Sant'Angelo,Teramo
http://dati.beniculturali.it/mibact/luoghi/resource/CulturalInstituteOrSite/100104,Museo archeologico di Notaresco,42.658226,13.894705,"Via Romualdi, 2 - Notaresco",64024,Notaresco,Teramo
http://dati.beniculturali.it/mibact/luoghi/resource/CulturalInstituteOrSite/100104,Museo archeologico di Notaresco,42.658226,13.894705,"Via Romualdi, 2 - Notaresco",64024,Notaresco,Teramo
http://dati.beniculturali.it/mibact/luoghi/resource/CulturalInstituteOrSite/100105,Civica raccolta d'arte di Roseto degli Abruzzi,42.67227,14.018385,"Via Nazionale, 250 - Roseto degli Abruzzi",64026,Roseto degli Abruzzi,Teramo
http://dati.beniculturali.it/mibact/luoghi/resource/CulturalInstituteOrSite/100105,Civica raccolta d'arte di Roseto degli Abruzzi,42.67227,14.018385,"Via Nazionale, 250 - Roseto degli Abruzzi",64026,Roseto degli Abruzzi,Teramo
http://dati.beniculturali.it/mibact/luoghi/resource/CulturalInstituteOrSite/100106,Museo civico della cultura materiale,42.67763,13.988134,"Corso Umberto I, 51 - Roseto degli Abruzzi",64020,Roseto degli Abruzzi,Teramo
http://dati.beniculturali.it/mibact/luoghi/resource/CulturalInstituteOrSite/100106,Museo civico della cultura materiale,42.67763,13.988134,"Corso Umberto I, 51 - Roseto degli Abruzzi",64020,Roseto degli Abruzzi,Teramo
http://dati.beniculturali.it/mibact/luoghi/resource/CulturalInstituteOrSite/100107,"Museo civico archeologico ""Francesco Savini""",42.659485,13.701311,"Via Delfico, 30 - Teramo",64100,Teramo,Teramo
http://dati.beniculturali.it/mibact/luoghi/resource/CulturalInstituteOrSite/100107,"Museo civico archeologico ""Francesco Savini""",42.659485,13.701311,"Via Delfico, 30 - Teramo",64100,Teramo,Teramo
http://dati.beniculturali.it/mibact/luoghi/resource/CulturalInstituteOrSite/100109,Pinacoteca civica di Teramo,42.66172,13.69735,"Viale Bovio, 1 - Teramo",64100,Teramo,Teramo
http://dati.beniculturali.it/mibact/luoghi/resource/CulturalInstituteOrSite/100109,Pinacoteca civica di Teramo,42.66172,13.69735,"Viale Bovio, 1 - Teramo",64100,Teramo,Teramo
http://dati.beniculturali.it/mibact/luoghi/resource/CulturalInstituteOrSite/100111,Museo e presepe etnografico delle Genti della Laga,42.6555,13.655149,Via Giorgio Romani - Torricella Sicura,64010,Torricella Sicura,Teramo
http://dati.beniculturali.it/mibact/luoghi/resource/CulturalInstituteOrSite/100112,Museo della cultura marinara,42.803417,13.916535,"Via Nazionale Adriatica Nord, 1 - Tortoreto",64018,Tortoreto,Teramo
http://dati.beniculturali.it/mibact/luoghi/resource/CulturalInstituteOrSite/100113,Museo delle tradizioni artigiane,42.54658,13.647991,"Salita del Castello, SNC - Tossicia",64049,Tossicia,Teramo
http://dati.beniculturali.it/mibact/luoghi/resource/CulturalInstituteOrSite/100113,Museo delle tradizioni artigiane,42.54658,13.647991,"Salita del Castello, SNC - Tossicia",64049,Tossicia,Teramo
http://dati.beniculturali.it/mibact/luoghi/resource/CulturalInstituteOrSite/100113,Museo delle tradizioni artigiane,42.54658,13.647991,"Salita del Castello, SNC - Tossicia",64049,Tossicia,Teramo
http://dati.beniculturali.it/mibact/luoghi/resource/CulturalInstituteOrSite/100113,Museo delle tradizioni artigiane,42.54658,13.647991,"Salita del Castello, SNC - Tossicia",64049,Tossicia,Teramo
http://dati.beniculturali.it/mibact/luoghi/resource/CulturalInstituteOrSite/100114,Museo delle armi antiche - Centro ricerche storiografiche,42.886963,13.913195,Strada Statale 16 Adriatica - Variante n. 39 - Martinsicuro,64014,Martinsicuro,Teramo
http://dati.beniculturali.it/mibact/luoghi/resource/CulturalInstituteOrSite/100114,Museo delle armi antiche - Centro ricerche storiografiche,42.886963,13.913195,Strada Statale 16 Adriatica - Variante n. 39 - Martinsicuro,64014,Martinsicuro,Teramo
http://dati.beniculturali.it/mibact/luoghi/resource/CulturalInstituteOrSite/100115,Museo della civiltà  contadina ,40.31164,16.231853,Piazza Garibaldi - Aliano,75010,Aliano,Matera
http://dati.beniculturali.it/mibact/luoghi/resource/CulturalInstituteOrSite/100116,Casa museo multimediale della casa di confino di Carlo Levi,40.313786,16.229853,"Vico Secondo Umberto I, SNC - Aliano",75010,Aliano,Matera
http://dati.beniculturali.it/mibact/luoghi/resource/CulturalInstituteOrSite/100117,Pinacoteca d'arte moderna,40.40366,16.688118,"Piazza S. Bernandino, 04 - Bernalda",75012,Bernalda,Matera
http://dati.beniculturali.it/mibact/luoghi/resource/CulturalInstituteOrSite/100120,"Museo storico ""Generale Ignazio Pisciotta""",40.666378,16.60432,"Via Francesco D'Alessio, , 52 - Matera",75100,Matera,Matera
http://dati.beniculturali.it/mibact/luoghi/resource/CulturalInstituteOrSite/100120,"Museo storico ""Generale Ignazio Pisciotta""",40.666378,16.60432,"Via Francesco D'Alessio, , 52 - Matera",75100,Matera,Matera
http://dati.beniculturali.it/mibact/luoghi/resource/CulturalInstituteOrSite/100121,Archivio privato fotografico Giuseppe Buonsanti,40.66169,16.607788,"Via Caropreso, 9 - Matera",75100,Matera,Matera
http://dati.beniculturali.it/mibact/luoghi/resource/CulturalInstituteOrSite/100122,"Biblioteca, pinacoteca e raccolta numismatica ""F. Rondinelli""",40.292824,16.561077,"Via Roma, 48 - Montalbano Jonico",75023,Montalbano Jonico,Matera
http://dati.beniculturali.it/mibact/luoghi/resource/CulturalInstituteOrSite/100122,"Biblioteca, pinacoteca e raccolta numismatica ""F. Rondinelli""",40.292824,16.561077,"Via Roma, 48 - Montalbano Jonico",75023,Montalbano Jonico,Matera
http://dati.beniculturali.it/mibact/luoghi/resource/CulturalInstituteOrSite/100123,Musma - Museo della scultura contemporanea Matera,40.666,16.61196,Via San Giacomo - Matera,75100,Matera,Matera
http://dati.beniculturali.it/mibact/luoghi/resource/CulturalInstituteOrSite/100123,Musma - Museo della scultura contemporanea Matera,40.666,16.61196,Via San Giacomo - Matera,75100,Matera,Matera
http://dati.beniculturali.it/mibact/luoghi/resource/CulturalInstituteOrSite/100124,Museo francescano della civiltà  contadina,40.55467,16.66977,"Via San Francesco d'Assisi, 42 - Montescaglioso",75024,Montescaglioso,Matera
http://dati.beniculturali.it/mibact/luoghi/resource/CulturalInstituteOrSite/100126,L'angolo della memoria,40.402573,16.230324,"Via S. Colombo, 12 - Stigliano",75018,Stigliano,Matera
http://dati.beniculturali.it/mibact/luoghi/resource/CulturalInstituteOrSite/100131,Mostra documentaria Benedetto Croce: da Napoli a Valsinni sulle orme di Isabella Morra,40.168304,16.441906,"Via Salita Castello,  - Valsinni",75029,Valsinni,Matera
http://dati.beniculturali.it/mibact/luoghi/resource/CulturalInstituteOrSite/100132,Mostra permanente Il mondo artigiano e contadino dell'antica Favale,40.168716,16.44216,"Via Roma / Via Aspromonte,  - Valsinni",75029,Valsinni,Matera
http://dati.beniculturali.it/mibact/luoghi/resource/CulturalInstituteOrSite/100134,Museo di artigianato locale,40.794033,15.938958,"Piazza Papa Giovanni XXIII, 14 - Acerenza",85011,Acerenza,Potenza
http://dati.beniculturali.it/mibact/luoghi/resource/CulturalInstituteOrSite/100135,Micromuseo contadino,40.790367,15.936046,"Corso Vittorio Emanuele,  - Acerenza",85011,Acerenza,Potenza
http://dati.beniculturali.it/mibact/luoghi/resource/CulturalInstituteOrSite/100136,Museo interattivo del giocattolo povero e del gioco di strada,40.586502,16.037401,"Piazza Salvo D'acquisto,  - Albano di Lucania",85010,Albano di Lucania,Potenza
http://dati.beniculturali.it/mibact/luoghi/resource/CulturalInstituteOrSite/100136,Museo interattivo del giocattolo povero e del gioco di strada,40.586502,16.037401,"Piazza Salvo D'acquisto,  - Albano di Lucania",85010,Albano di Lucania,Potenza
http://dati.beniculturali.it/mibact/luoghi/resource/CulturalInstituteOrSite/100138,Museo della cultura arbereshe,40.036278,16.335014,"Via Regina Margherita, 10 - San Paolo Albanese",85030,San Paolo Albanese,Potenza
http://dati.beniculturali.it/mibact/luoghi/resource/CulturalInstituteOrSite/100141,Museo etnografico dei maestri artigiani e della civiltà  contadina,40.84597,16.037825,"Via delle Colonie, 49 - Genzano di Lucania",85013,Genzano di Lucania,Potenza
http://dati.beniculturali.it/mibact/luoghi/resource/CulturalInstituteOrSite/100142,"Museo delle arti, dei mestieri e della civiltà  contadina",40.090878,16.010853,"Via Provinciale SP 101, 8 - Latronico",85043,Latronico,Potenza
http://dati.beniculturali.it/mibact/luoghi/resource/CulturalInstituteOrSite/100143,Convento francescano di S. Maria della neve,40.459496,15.969878,Contrada Convento - Laurenzana,85014,Laurenzana,Potenza
http://dati.beniculturali.it/mibact/luoghi/resource/CulturalInstituteOrSite/100144,Museo della civiltà  contadina di Lavello,41.04911,15.800388,"Via Cavour, 89 - Lavello",85024,Lavello,Potenza
http://dati.beniculturali.it/mibact/luoghi/resource/CulturalInstituteOrSite/100146,Museo-laboratorio scientifico,40.99584,15.645328,"Via L. Da Vinci,  - Melfi",85025,Melfi,Potenza
http://dati.beniculturali.it/mibact/luoghi/resource/CulturalInstituteOrSite/100146,Museo-laboratorio scientifico,40.99584,15.645328,"Via L. Da Vinci,  - Melfi",85025,Melfi,Potenza
http://dati.beniculturali.it/mibact/luoghi/resource/CulturalInstituteOrSite/100147,Centro di documentazione sanisgalliana,40.269543,15.967475,Piazza Garibaldi - Montemurro,85053,Montemurro,Potenza
http://dati.beniculturali.it/mibact/luoghi/resource/CulturalInstituteOrSite/100149,Museo archeologico nazionale di Muro Lucano,40.75298,15.488306,"Via Seminario, 6 - Muro Lucano",85054,Muro Lucano,Potenza
http://dati.beniculturali.it/mibact/luoghi/resource/CulturalInstituteOrSite/100151,"Pinacoteca ""Camillo D'Errico""",40.93141,15.985477,"Corso Manfredi, SNC - Palazzo San Gervasio",85026,Palazzo San Gervasio,Potenza
http://dati.beniculturali.it/mibact/luoghi/resource/CulturalInstituteOrSite/100152,Museo parrocchiale di arte sacra di Pescopagano,40.83605,15.398804,"Via SS. Annunziata, SNC - Pescopagano",85020,Pescopagano,Potenza
http://dati.beniculturali.it/mibact/luoghi/resource/CulturalInstituteOrSite/100152,Museo parrocchiale di arte sacra di Pescopagano,40.83605,15.398804,"Via SS. Annunziata, SNC - Pescopagano",85020,Pescopagano,Potenza
http://dati.beniculturali.it/mibact/luoghi/resource/CulturalInstituteOrSite/100155,Museo archeologico provinciale di Potenza,40.649014,15.802221,"Via Ciccotti , 18 - Potenza",85100,Potenza,Potenza
http://dati.beniculturali.it/mibact/luoghi/resource/CulturalInstituteOrSite/100161,Museo della civiltà  contadina,40.022213,16.136091,"Corso Garibaldi, 36 - San Severino Lucano",85030,San Severino Lucano,Potenza
http://dati.beniculturali.it/mibact/luoghi/resource/CulturalInstituteOrSite/100164,Museo Satriano le origini,40.545155,15.638879,"Via De Gregorio, 27 - Satriano di Lucania",85050,Satriano di Lucania,Potenza
http://dati.beniculturali.it/mibact/luoghi/resource/CulturalInstituteOrSite/100165,Museo etnografico del senisese,40.14451,16.289541,"Via Rinaldi, SNC - Senise",85038,Senise,Potenza
http://dati.beniculturali.it/mibact/luoghi/resource/CulturalInstituteOrSite/100169,Museo delle antiche genti di Lucania,40.668484,15.918727,"Via Dinu Adamesteanu, 1 - Vaglio Basilicata",85010,Vaglio Basilicata,Potenza
http://dati.beniculturali.it/mibact/luoghi/resource/CulturalInstituteOrSite/101689,Giardino geologico di Cupone,39.340267,16.445072,"Via della Repubblica, 26 - Spezzano della Sila",87100,Spezzano della Sila,Cosenza
http://dati.beniculturali.it/mibact/luoghi/resource/CulturalInstituteOrSite/101728,Ecomuseo di archeologia industriale di Bivongi,38.481617,16.45336,"Via Matteotti, 3 - Bivongi",89040,Bivongi,Reggio di Calabria
http://dati.beniculturali.it/mibact/luoghi/resource/CulturalInstituteOrSite/101764,"Museo civico ""Della gente senza storia""",41.009148,14.778116,"Via Macello, 9 - Altavilla Irpina",83011,Altavilla Irpina,Avellino
http://dati.beniculturali.it/mibact/luoghi/resource/CulturalInstituteOrSite/101765,Museo della civiltà  contadina e artigiana di Andretta,40.932877,15.32283,"Via Libertà , 45 - Andretta",83040,Andretta,Avellino
http://dati.beniculturali.it/mibact/luoghi/resource/CulturalInstituteOrSite/101766,"Museo etnografico ""Beniamino Tartaglia""",40.98876,15.476971,"Via Carbonara, 3 - Aquilonia",83041,Aquilonia,Avellino
http://dati.beniculturali.it/mibact/luoghi/resource/CulturalInstituteOrSite/101767,Museo civico e della ceramica di Ariano Irpino,41.152767,15.089351,"Via R. D'Afflitto 14 ,  - Ariano Irpino",83031,Ariano Irpino,Avellino
http://dati.beniculturali.it/mibact/luoghi/resource/CulturalInstituteOrSite/101768,Museo diocesano di Ariano Irpino e Lacedonia,41.15252,15.08758,"Via Annunziata snc,  - Ariano Irpino",83031,Ariano Irpino,Avellino
http://dati.beniculturali.it/mibact/luoghi/resource/CulturalInstituteOrSite/101769,Museo Giuseppina Arcucci,41.153164,15.089247,"Via P. S. Mancini, 16 - Ariano Irpino",83031,Ariano Irpino,Avellino
http://dati.beniculturali.it/mibact/luoghi/resource/CulturalInstituteOrSite/101772,Museo della civiltà  contadina di Bonito (Bahia),41.09876,15.00237,"Via Roma, SNC - Bonito",83032,Bonito,Avellino
http://dati.beniculturali.it/mibact/luoghi/resource/CulturalInstituteOrSite/101775,Antiquarium Filippo Buonopane,41.067425,15.055608," Piazza Vittoria, 5 - Grottaminarda",83035,Grottaminarda,Avellino
http://dati.beniculturali.it/mibact/luoghi/resource/CulturalInstituteOrSite/101777,Museo diocesano San Gelardo,41.050262,15.423087,"Piazza De Sanctis,  - Lacedonia",83046,Lacedonia,Avellino
http://dati.beniculturali.it/mibact/luoghi/resource/CulturalInstituteOrSite/101777,Museo diocesano San Gelardo,41.050262,15.423087,"Piazza De Sanctis,  - Lacedonia",83046,Lacedonia,Avellino
http://dati.beniculturali.it/mibact/luoghi/resource/CulturalInstituteOrSite/101780,Museo Umberto Nobile,40.879223,14.63313,"Piazza Umberto Nobile snc,  - Lauro",83023,Lauro,Avellino
http://dati.beniculturali.it/mibact/luoghi/resource/CulturalInstituteOrSite/101781,Abbazia di Montevergine,40.937794,14.740747,Via Montevergine - Mercogliano,83013,Mercogliano,Avellino
http://dati.beniculturali.it/mibact/luoghi/resource/CulturalInstituteOrSite/101781,Abbazia di Montevergine,40.937794,14.740747,Via Montevergine - Mercogliano,83013,Mercogliano,Avellino
http://dati.beniculturali.it/mibact/luoghi/resource/CulturalInstituteOrSite/101784,Museo dei parati sacri,40.91626,14.998611,"Piazza Mercato snc,  - Montemarano",83084,Montemarano,Avellino
http://dati.beniculturali.it/mibact/luoghi/resource/CulturalInstituteOrSite/101785,"Museo civico ""Don Nicola Gambino""",40.951767,15.162623,"Via del Forno Vecchio,  - Rocca San Felice",83050,Rocca San Felice,Avellino
http://dati.beniculturali.it/mibact/luoghi/resource/CulturalInstituteOrSite/101788,Museo civico di Airola ,41.05958,14.555621,"Via dei fiori snc,  - Airola",82011,Airola,Benevento
http://dati.beniculturali.it/mibact/luoghi/resource/CulturalInstituteOrSite/101790,Museo paleontologico dell'Archeoclub di Baselice,41.39487,14.97376,",  - Baselice",82020,Baselice,Benevento
http://dati.beniculturali.it/mibact/luoghi/resource/CulturalInstituteOrSite/101791,Museo del Sannio,41.130447,14.781174,"Piazza Santa Sofia snc,  - Benevento",82100,Benevento,Benevento
http://dati.beniculturali.it/mibact/luoghi/resource/CulturalInstituteOrSite/101792,MUSA - Polo museale della tecnica e del lavoro in agricoltura,41.105007,14.823051,"Contrada Piano Cappelle ,  - Benevento",82100,Benevento,Benevento
http://dati.beniculturali.it/mibact/luoghi/resource/CulturalInstituteOrSite/101793,Museo civico e della ceramica cerretese,41.283348,14.555858,"Corso Umberto I snc,  - Cerreto Sannita",82032,Cerreto Sannita,Benevento
http://dati.beniculturali.it/mibact/luoghi/resource/CulturalInstituteOrSite/101794,Museo civico del territorio  di Cusano Mutri,41.339344,14.505615,"Via Municipio, 4 - Cusano Mutri",82033,Cusano Mutri,Benevento
http://dati.beniculturali.it/mibact/luoghi/resource/CulturalInstituteOrSite/101795,Museo delle arti e tradizioni popolari di Fragneto Monforte,41.24579,14.760277,"Via Ripa, 4 - Fragneto Monforte",82020,Fragneto Monforte,Benevento
http://dati.beniculturali.it/mibact/luoghi/resource/CulturalInstituteOrSite/101798,Mostra permanente della ceramica antica e moderna,41.283348,14.555858,"Piazza Luigi Sodo, 1 -  sede distaccata Viale Minieri snc - Telese Terme,  - Cerreto Sannita",82032,Cerreto Sannita,Benevento
http://dati.beniculturali.it/mibact/luoghi/resource/CulturalInstituteOrSite/101799,Museo civico e degli orologi da torre,41.308067,14.877089,"Via Rovagnera, 24 - San Marco dei Cavoti",82029,San Marco dei Cavoti,Benevento
http://dati.beniculturali.it/mibact/luoghi/resource/CulturalInstituteOrSite/101801,MEG - Museo Enogastronomico di Solopaca,41.193737,14.555038,"Corso Cusani - Palazzo Cutillo, 114 - Solopaca",82036,Solopaca,Benevento
http://dati.beniculturali.it/mibact/luoghi/resource/CulturalInstituteOrSite/101804,Museo provinciale campano,41.110867,14.213192,"Via Roma, 68 - Capua",81043,Capua,Caserta
http://dati.beniculturali.it/mibact/luoghi/resource/CulturalInstituteOrSite/101806,Istituzione museo civico di Maddaloni,41.03826,14.389082,"Via Nino Bixio, 197 - Maddaloni",81024,Maddaloni,Caserta
http://dati.beniculturali.it/mibact/luoghi/resource/CulturalInstituteOrSite/101808,Sacrario militare,41.409107,13.986632,"Via Casilina, 1 - Mignano Monte Lungo",81049,Mignano Monte Lungo,Caserta
http://dati.beniculturali.it/mibact/luoghi/resource/CulturalInstituteOrSite/101809,"Museo civico archeologico ""Biagio Greco""",41.11597,13.895737,"Via Genova, 2 - Mondragone",81034,Mondragone,Caserta
http://dati.beniculturali.it/mibact/luoghi/resource/CulturalInstituteOrSite/101811,Museo di arte sacra - Pietramelara,41.266636,14.210131,"Piazza Sant'Agostino, 1 - Pietramelara",81051,Pietramelara,Caserta
http://dati.beniculturali.it/mibact/luoghi/resource/CulturalInstituteOrSite/101812,Museo della civiltà  contadina e artigiana di Pignataro Maggiore,41.190727,14.158225,"Via Partignano, 16/, 20 - Pignataro Maggiore",81052,Pignataro Maggiore,Caserta
http://dati.beniculturali.it/mibact/luoghi/resource/CulturalInstituteOrSite/101814,Museo della civiltà  contadina di Prata Sannita,41.427338,14.199904,"Piazza Castello snc,  - Prata Sannita",81010,Prata Sannita,Caserta
http://dati.beniculturali.it/mibact/luoghi/resource/CulturalInstituteOrSite/101815,Museo storico militare  di Prata Sannita,41.42695,14.204856,"Piazza Castello- Largo Portelle,  - Prata Sannita",81010,Prata Sannita,Caserta
http://dati.beniculturali.it/mibact/luoghi/resource/CulturalInstituteOrSite/101816,Museo della civiltà  contadina di San Nicola La Strada,41.054245,14.331573,"Piazza Municipio, 14 - San Nicola la Strada",81020,San Nicola la Strada,Caserta
http://dati.beniculturali.it/mibact/luoghi/resource/CulturalInstituteOrSite/101818,Museo civico garibaldino e risorgimentale,41.078056,14.265829,"Piazza Angiulli, 7 ,  - Santa Maria Capua Vetere",81055,Santa Maria Capua Vetere,Caserta
http://dati.beniculturali.it/mibact/luoghi/resource/CulturalInstituteOrSite/101819,Museo delle carrozze di Santa Maria Capua Vetere,41.081707,14.269422,"Via Appia, 42 - Santa Maria Capua Vetere",81055,Santa Maria Capua Vetere,Caserta
http://dati.beniculturali.it/mibact/luoghi/resource/CulturalInstituteOrSite/101820,Museo civico di Sant'Arpino,40.957653,14.25281,"Piazza Umberto I, 1 - Sant'Arpino",81030,Sant'Arpino,Caserta
http://dati.beniculturali.it/mibact/luoghi/resource/CulturalInstituteOrSite/101821,Museo della cripta della Cattedrale,41.250313,14.065803,"Piazza Duomo, 3 - Teano",81057,Teano,Caserta
http://dati.beniculturali.it/mibact/luoghi/resource/CulturalInstituteOrSite/101821,Museo della cripta della Cattedrale,41.250313,14.065803,"Piazza Duomo, 3 - Teano",81057,Teano,Caserta
http://dati.beniculturali.it/mibact/luoghi/resource/CulturalInstituteOrSite/101823,Museo civico di Acerra,40.94411,14.371438,"Piazza Castello Baronale,  - Acerra",80011,Acerra,Napoli
http://dati.beniculturali.it/mibact/luoghi/resource/CulturalInstituteOrSite/101824,"Museo di Pulcinella, del folklore e della civiltà  contadina",40.945595,14.370412,"Castello Baronale di Acerra - Piazza Castello, 1 - Acerra",80011,Acerra,Napoli
http://dati.beniculturali.it/mibact/luoghi/resource/CulturalInstituteOrSite/101825,Museo diocesano di Acerra,40.943405,14.372265,"Piazza del Duomo,  - Acerra",80011,Acerra,Napoli
http://dati.beniculturali.it/mibact/luoghi/resource/CulturalInstituteOrSite/101825,Museo diocesano di Acerra,40.943405,14.372265,"Piazza del Duomo,  - Acerra",80011,Acerra,Napoli
http://dati.beniculturali.it/mibact/luoghi/resource/CulturalInstituteOrSite/101826,Chiesa monumentale di San Michele,40.55476,14.217678,"Piazza San Nicola,  - Anacapri",80071,Anacapri,Napoli
http://dati.beniculturali.it/mibact/luoghi/resource/CulturalInstituteOrSite/101828,Museo del Centro Caprense Ignazio Cerio,40.548897,14.245807,"P.tta Ignazio Cerio, 5 - Capri",80073,Capri,Napoli
http://dati.beniculturali.it/mibact/luoghi/resource/CulturalInstituteOrSite/101834,Museo sansossiano di arte sacra,40.94146,14.271945,"Basilica Pontificia di San Sossio - Piazza Umberto I ,  - Frattamaggiore",80027,Frattamaggiore,Napoli
http://dati.beniculturali.it/mibact/luoghi/resource/CulturalInstituteOrSite/101837,Museo archeologico di Pithecusae - Villa Arbusto,40.753803,13.883016,"Corso Angelo Rizzoli, 210 - Lacco Ameno",80076,Lacco Ameno,Napoli
http://dati.beniculturali.it/mibact/luoghi/resource/CulturalInstituteOrSite/101841,Pio Monte della Misericordia,40.852013,14.260437,"Via dei Tribunali, 253 - Napoli",80139,Napoli,Napoli
http://dati.beniculturali.it/mibact/luoghi/resource/CulturalInstituteOrSite/101844,Area archeologica del Complesso di San Lorenzo Maggiore ,40.85098,14.25737,"Piazza San Gaetano - via Tribunali, 316 - Napoli",80138,Napoli,Napoli
http://dati.beniculturali.it/mibact/luoghi/resource/CulturalInstituteOrSite/101848,Museo cappella Sansevero,40.84918,14.254819,"Via Francesco De Sanctis, 19 - Napoli",80134,Napoli,Napoli
http://dati.beniculturali.it/mibact/luoghi/resource/CulturalInstituteOrSite/101849,Museo Giuseppe Caravita principe di Sirignano,40.837185,14.24841,"Via Trieste e Trento, 48 - Napoli",80132,Napoli,Napoli
http://dati.beniculturali.it/mibact/luoghi/resource/CulturalInstituteOrSite/101851,Museo del mare di Napoli - Fondazione Thetys ,40.814625,14.164501,"Via di Pozzuoli, 5 - Napoli",80124,Napoli,Napoli
http://dati.beniculturali.it/mibact/luoghi/resource/CulturalInstituteOrSite/101852,Museo del tesoro di San Gennaro,40.85231,14.259038,"Via Duomo, 149/a,  - Napoli",80132,Napoli,Napoli
http://dati.beniculturali.it/mibact/luoghi/resource/CulturalInstituteOrSite/101853,Museo del tessile e dell'abbigliamento Elena Aldobrandini,40.837856,14.242008,"Piazzetta Mondragone, 18 - Napoli",80132,Napoli,Napoli
http://dati.beniculturali.it/mibact/luoghi/resource/CulturalInstituteOrSite/101854,Museo dell'opera di Santa Chiara,40.846016,14.254106,"Via S. Chiara, 49/C - Napoli",80134,Napoli,Napoli
http://dati.beniculturali.it/mibact/luoghi/resource/CulturalInstituteOrSite/101854,Museo dell'opera di Santa Chiara,40.846016,14.254106,"Via S. Chiara, 49/C - Napoli",80134,Napoli,Napoli
http://dati.beniculturali.it/mibact/luoghi/resource/CulturalInstituteOrSite/101859,Museo di paleontologia del Centro musei scienze naturali,40.847458,14.258098,"Largo S. Marcellino, 10 - Napoli",80138,Napoli,Napoli
http://dati.beniculturali.it/mibact/luoghi/resource/CulturalInstituteOrSite/101861,Museo etnopreistorico,40.827534,14.248696,"Via Eldorado, 34 - Napoli",80132,Napoli,Napoli
http://dati.beniculturali.it/mibact/luoghi/resource/CulturalInstituteOrSite/101862,Museo navale,40.823856,14.215851,"Via Petrarca, 80 - Napoli",80122,Napoli,Napoli
http://dati.beniculturali.it/mibact/luoghi/resource/CulturalInstituteOrSite/101863,Museo degli strumenti astronomici,40.86455,14.254453,"Salita Moiariello, 16 - Napoli",80131,Napoli,Napoli
http://dati.beniculturali.it/mibact/luoghi/resource/CulturalInstituteOrSite/101864,Complesso dei Girolamini,40.852448,14.258793,"via Duomo, 142 - Napoli",80138,Napoli,Napoli
http://dati.beniculturali.it/mibact/luoghi/resource/CulturalInstituteOrSite/101867,"Museo etnomusicale ""I gigli di Nola""",40.924118,14.528246,"Via Basso, 9 - Nola",80035,Nola,Napoli
http://dati.beniculturali.it/mibact/luoghi/resource/CulturalInstituteOrSite/101874,Museo diocesano di Pozzuoli,40.845947,14.093287,"Via Campi Flegrei, SNC - Pozzuoli",80078,Pozzuoli,Napoli
http://dati.beniculturali.it/mibact/luoghi/resource/CulturalInstituteOrSite/101874,Museo diocesano di Pozzuoli,40.845947,14.093287,"Via Campi Flegrei, SNC - Pozzuoli",80078,Pozzuoli,Napoli
http://dati.beniculturali.it/mibact/luoghi/resource/CulturalInstituteOrSite/101875,Museo del mare di Procida,40.764877,14.021496,"Via Libertà , 40 - Procida",80079,Procida,Napoli
http://dati.beniculturali.it/mibact/luoghi/resource/CulturalInstituteOrSite/101876,Museo dell'Osservatorio vesuviano,40.806076,14.352921,"Via dell'Osservatorio snc,  - Ercolano",80026,Ercolano,Napoli
http://dati.beniculturali.it/mibact/luoghi/resource/CulturalInstituteOrSite/101877,Museo degli ex voto,40.883076,14.382841,"Via Romani, 3 - Sant'Anastasia",80048,Sant'Anastasia,Napoli
http://dati.beniculturali.it/mibact/luoghi/resource/CulturalInstituteOrSite/101877,Museo degli ex voto,40.883076,14.382841,"Via Romani, 3 - Sant'Anastasia",80048,Sant'Anastasia,Napoli
http://dati.beniculturali.it/mibact/luoghi/resource/CulturalInstituteOrSite/101878,"Museo della civiltà  contadina ""Michele Russo""",40.876904,14.435226,"Piazza Santa Maria del Pozzo, 10 - Somma Vesuviana",80049,Somma Vesuviana,Napoli
http://dati.beniculturali.it/mibact/luoghi/resource/CulturalInstituteOrSite/101879,Museobottega della tarsialignea,40.62586,14.370206,"Via san Nicola, 28 - Sorrento",80067,Sorrento,Napoli
http://dati.beniculturali.it/mibact/luoghi/resource/CulturalInstituteOrSite/101880,Museo Correale di Terranova,40.628754,14.380715,"Via Correale, 50 - Sorrento",80067,Sorrento,Napoli
http://dati.beniculturali.it/mibact/luoghi/resource/CulturalInstituteOrSite/101881,Museo emblema,40.813843,14.483688,"Via Vecchia Campitelli, 37 - Terzigno",80040,Terzigno,Napoli
http://dati.beniculturali.it/mibact/luoghi/resource/CulturalInstituteOrSite/101882,Museo mineralogico campano,40.662796,14.425933,"Via San Ciro, 2 - Vico Equense",80069,Vico Equense,Napoli
http://dati.beniculturali.it/mibact/luoghi/resource/CulturalInstituteOrSite/101883,Museo civico di Amalfi,40.633987,14.604701,"Piazza Municipio, 6 - Amalfi",84011,Amalfi,Salerno
http://dati.beniculturali.it/mibact/luoghi/resource/CulturalInstituteOrSite/101884,Museo della carta di Amalfi,40.63971,14.600144,"Via Delle Cartiere, 23 - Amalfi",84011,Amalfi,Salerno
http://dati.beniculturali.it/mibact/luoghi/resource/CulturalInstituteOrSite/101885,Museo di civiltà  contadina arti e mestieri,40.6399,14.599607,"Via delle Cartiere, 55 - Amalfi",84011,Amalfi,Salerno
http://dati.beniculturali.it/mibact/luoghi/resource/CulturalInstituteOrSite/101886,Museo diocesano della Basilica del Crocifisso,40.649586,14.61165,"Piazza Duomo, 1 - Amalfi",84011,Amalfi,Salerno
http://dati.beniculturali.it/mibact/luoghi/resource/CulturalInstituteOrSite/101889,Museo di arte sacra di Castellabate,40.282585,14.957445,"Via Guglielmo I Normanno, 1 - Castellabate",84048,Castellabate,Salerno
http://dati.beniculturali.it/mibact/luoghi/resource/CulturalInstituteOrSite/101890,Museo della cultura e civiltà  contadina di Castel San Lorenzo,40.41667,15.230544,"Via G.  Tommasini snc,  - Castel San Lorenzo",84049,Castel San Lorenzo,Salerno
http://dati.beniculturali.it/mibact/luoghi/resource/CulturalInstituteOrSite/101891,Museo nazionale della SS. Trinità ,40.683216,14.693392,"Via Morcaldi, 6 - Cava de' Tirreni",84010,Cava de' Tirreni,Salerno
http://dati.beniculturali.it/mibact/luoghi/resource/CulturalInstituteOrSite/101896,Museo della civiltà  contadina ed artigiana,40.37517,15.24099,"Via Pomerio,  - Felitto",84055,Felitto,Salerno
http://dati.beniculturali.it/mibact/luoghi/resource/CulturalInstituteOrSite/101896,Museo della civiltà  contadina ed artigiana,40.37517,15.24099,"Via Pomerio,  - Felitto",84055,Felitto,Salerno
http://dati.beniculturali.it/mibact/luoghi/resource/CulturalInstituteOrSite/101897,"Fototeca ""I segni del tempo""",40.373405,15.243548,"Piazza Mercato, 1 - Felitto",84055,Felitto,Salerno
http://dati.beniculturali.it/mibact/luoghi/resource/CulturalInstituteOrSite/101898,Ecomuseo del fiordo di furore,40.61883,14.55316,"Via Anna Magnani, 8 - Furore",84010,Furore,Salerno
http://dati.beniculturali.it/mibact/luoghi/resource/CulturalInstituteOrSite/101900,"Museo d'arte sacra ""Don Clemente Confalone """,40.649994,14.638994,"Largo Campo,  - Maiori",84010,Maiori,Salerno
http://dati.beniculturali.it/mibact/luoghi/resource/CulturalInstituteOrSite/101901,Museo della civiltà  contadina di Moio della Civitella,40.24821,15.269482,"Via Municipio (Via Enzo D'Oris), 39 - Moio della Civitella",84060,Moio della Civitella,Salerno
http://dati.beniculturali.it/mibact/luoghi/resource/CulturalInstituteOrSite/101901,Museo della civiltà  contadina di Moio della Civitella,40.24821,15.269482,"Via Municipio (Via Enzo D'Oris), 39 - Moio della Civitella",84060,Moio della Civitella,Salerno
http://dati.beniculturali.it/mibact/luoghi/resource/CulturalInstituteOrSite/101903,Museo civico di Montesano sulla Marcellana,40.270275,15.723381,"Via Roma snc,  - Montesano sulla Marcellana",84033,Montesano sulla Marcellana,Salerno
http://dati.beniculturali.it/mibact/luoghi/resource/CulturalInstituteOrSite/101904,Museo etnografico di Morigerati,40.1396,15.554161,"Via Granatelli, 3 - Morigerati",84030,Morigerati,Salerno
http://dati.beniculturali.it/mibact/luoghi/resource/CulturalInstituteOrSite/101905,Museo archeologico provinciale dell'Agro Nocerino,40.746094,14.642815,"Convento di Sant'Antonio - piazza S. Antonio snc,  - Nocera Inferiore",84014,Nocera Inferiore,Salerno
http://dati.beniculturali.it/mibact/luoghi/resource/CulturalInstituteOrSite/101906,Museo archeologico provinciale dell'Alta Valle del Sele,40.691425,15.230963,"Castello di Oliveto Citra - Via Chiesa snc,  - Oliveto Citra",84020,Oliveto Citra,Salerno
http://dati.beniculturali.it/mibact/luoghi/resource/CulturalInstituteOrSite/101907,"Casa museo ""Joe Petrosino"" Padula-New York-Palermo Vita e morte di un detective",40.337982,15.655945,"Via Giuseppe Petrosino, 6 - Padula",84034,Padula,Salerno
http://dati.beniculturali.it/mibact/luoghi/resource/CulturalInstituteOrSite/101908,Museo archeologico provinciale della Lucania occidentale,40.332,15.641166,Via Certosa - Padula,84034,Padula,Salerno
http://dati.beniculturali.it/mibact/luoghi/resource/CulturalInstituteOrSite/101908,Museo archeologico provinciale della Lucania occidentale,40.332,15.641166,Via Certosa - Padula,84034,Padula,Salerno
http://dati.beniculturali.it/mibact/luoghi/resource/CulturalInstituteOrSite/101909,Museo Alfonsiano,40.742607,14.611231,"Piazza S. Alfonso, 1 - Pagani",84016,Pagani,Salerno
http://dati.beniculturali.it/mibact/luoghi/resource/CulturalInstituteOrSite/101910,Museo del corallo di Ravello,40.649406,14.611666,"Piazza Duomo, 9 - Ravello",84010,Ravello,Salerno
http://dati.beniculturali.it/mibact/luoghi/resource/CulturalInstituteOrSite/101911,Museo del Duomo Ravello,40.657475,14.614004,"Piazza Duomo, SNC - Ravello",84010,Ravello,Salerno
http://dati.beniculturali.it/mibact/luoghi/resource/CulturalInstituteOrSite/101915,Museo della civiltà  contadina di Roscigno,40.422916,15.310375,"Piazza Nicotera,  - Roscigno",84020,Roscigno,Salerno
http://dati.beniculturali.it/mibact/luoghi/resource/CulturalInstituteOrSite/101916,"Museo sacro ""S. Nicola di Bari""",40.400093,15.345941,"Via Dante Alighieri, 90 - Roscigno",84020,Roscigno,Salerno
http://dati.beniculturali.it/mibact/luoghi/resource/CulturalInstituteOrSite/101918,Collezione ceramiche Alfonso Tafuri,40.687378,14.749177,"Larghetto Cassavecchia, 11 - Salerno",84125,Salerno,Salerno
http://dati.beniculturali.it/mibact/luoghi/resource/CulturalInstituteOrSite/101919,Museo archeologico provinciale di Salerno,40.679443,14.761917,"Via San Benedetto, 28 - Salerno",84122,Salerno,Salerno
http://dati.beniculturali.it/mibact/luoghi/resource/CulturalInstituteOrSite/101920,Museo città  creativa,40.704784,14.80449,"Via Ogliara, 127/143 - loc. Ogliara,  - Salerno",84125,Salerno,Salerno
http://dati.beniculturali.it/mibact/luoghi/resource/CulturalInstituteOrSite/101921,"Museo diocesano ""S. Matteo""",40.680885,14.760416,"Largo Plebiscito, 12 - Salerno",84121,Salerno,Salerno
http://dati.beniculturali.it/mibact/luoghi/resource/CulturalInstituteOrSite/101922,Pinacoteca provinciale di Salerno,40.678997,14.76001,"Palazzo Pinto - Via Mercanti, 63 - Salerno",84122,Salerno,Salerno
http://dati.beniculturali.it/mibact/luoghi/resource/CulturalInstituteOrSite/101926,Museo delle arti e tradizioni contadine e popolari,40.3797,15.532487,"Via Santa Barbara, SNC - Teggiano",84039,Teggiano,Salerno
http://dati.beniculturali.it/mibact/luoghi/resource/CulturalInstituteOrSite/101927,"Museo diocesano ""San Pietro""",40.378548,15.541142,"Via San Pietro, 1 - Teggiano",84039,Teggiano,Salerno
http://dati.beniculturali.it/mibact/luoghi/resource/CulturalInstituteOrSite/101928,Museo diocesano di Vallo della Lucania,40.227512,15.264797,"Via Francesco Cammarota, 2 - Vallo della Lucania",84078,Vallo della Lucania,Salerno
http://dati.beniculturali.it/mibact/luoghi/resource/CulturalInstituteOrSite/101930,"Museo civico ""A. Crespellani""",44.503353,11.083701,"Via Contessa Matilde, 10,  - Bazzano",40053,Bazzano,Bologna
http://dati.beniculturali.it/mibact/luoghi/resource/CulturalInstituteOrSite/101931,"Museo della civiltà  contadina Istituzione ""Villa Smeraldi""",44.60065,11.41666,"Via Sammarina, 35 - loc. San Marino di Bentivoglio,  - Bentivoglio",40010,Bentivoglio,Bologna
http://dati.beniculturali.it/mibact/luoghi/resource/CulturalInstituteOrSite/101932,"Collezione d'arte antica, moderna e contemporanea Unicredit",44.495495,11.348702,"Via Zamboni, 20,  - Bologna",40121,Bologna,Bologna
http://dati.beniculturali.it/mibact/luoghi/resource/CulturalInstituteOrSite/101933,"Donazione ""Putti"" - Istituto ortopedico Rizzoli",44.480713,11.342686,"Via G.C. Pupilli, 1,  - Bologna",40121,Bologna,Bologna
http://dati.beniculturali.it/mibact/luoghi/resource/CulturalInstituteOrSite/101934,Erbario e Museo botanico,44.49936,11.352935,"Via Irnerio, 42,  - Bologna",40121,Bologna,Bologna
http://dati.beniculturali.it/mibact/luoghi/resource/CulturalInstituteOrSite/101935,MAMbo - Museo d'Arte Moderna di Bologna,44.50276,11.337026,"Via Don Minzoni, 14,  - Bologna",40121,Bologna,Bologna
http://dati.beniculturali.it/mibact/luoghi/resource/CulturalInstituteOrSite/101936,Musei civici d'arte antica - Collezioni comunali d'arte di Bologna,44.49383,11.342402,"Piazza Maggiore, 6,  - Bologna",40121,Bologna,Bologna
http://dati.beniculturali.it/mibact/luoghi/resource/CulturalInstituteOrSite/101937,Musei civici d'arte antica -  Museo civico medievale di Bologna,44.49648,11.342296,"Via Manzoni, 4,  - Bologna",40121,Bologna,Bologna
http://dati.beniculturali.it/mibact/luoghi/resource/CulturalInstituteOrSite/101939,Museo della comunicazione G. Pelagalli - Mille voci...mille suoni,44.500854,11.319823,"Via Col di Lana, 7/n,  - Bologna",40121,Bologna,Bologna
http://dati.beniculturali.it/mibact/luoghi/resource/CulturalInstituteOrSite/101940,Casa Carducci,44.487843,11.356923,"Piazza Carducci, 5,  - Bologna",40121,Bologna,Bologna
http://dati.beniculturali.it/mibact/luoghi/resource/CulturalInstituteOrSite/101941,Museo civico archeologico di Bologna,44.49295,11.34357,"Via dell'Archiginnasio, 2 - Bologna",40124,Bologna,Bologna
http://dati.beniculturali.it/mibact/luoghi/resource/CulturalInstituteOrSite/101943,Museo della strumentazione storica del Liceo Galvani,44.4891,11.347377,"Via Castiglione, 38,  - Bologna",40121,Bologna,Bologna
http://dati.beniculturali.it/mibact/luoghi/resource/CulturalInstituteOrSite/101944,"Museo delle cere anatomiche ""L. Cattaneo""",44.49855,11.355008,"Via Irnerio, 48,  - Bologna",40121,Bologna,Bologna
http://dati.beniculturali.it/mibact/luoghi/resource/CulturalInstituteOrSite/101945,"Museo geologico ""G. Capellini""",44.497967,11.35523,"Via Zamboni, 63,  - Bologna",40121,Bologna,Bologna
http://dati.beniculturali.it/mibact/luoghi/resource/CulturalInstituteOrSite/101946,Museo di San Domenico di Bologna,44.489765,11.343967,"Piazza S. Domenico, 13 - Bologna",40124,Bologna,Bologna
http://dati.beniculturali.it/mibact/luoghi/resource/CulturalInstituteOrSite/101946,Museo di San Domenico di Bologna,44.489765,11.343967,"Piazza S. Domenico, 13 - Bologna",40124,Bologna,Bologna
http://dati.beniculturali.it/mibact/luoghi/resource/CulturalInstituteOrSite/101947,Museo di San Giuseppe di Bologna,44.489555,11.325803,"Via Bellinzona, 6,  - Bologna",40121,Bologna,Bologna
http://dati.beniculturali.it/mibact/luoghi/resource/CulturalInstituteOrSite/101948,Museo ebraico di Bologna,44.495697,11.347597,"Via Valdonica, 1/5,  - Bologna",40121,Bologna,Bologna
http://dati.beniculturali.it/mibact/luoghi/resource/CulturalInstituteOrSite/101950,"Museo del tessuto e della tappezzeria ""Vittorio Zironi""",44.48832,11.315866,"Via Casaglia, 3,  - Bologna",40121,Bologna,Bologna
http://dati.beniculturali.it/mibact/luoghi/resource/CulturalInstituteOrSite/101952,Museo di zoologia di Bologna,44.49565,11.35388,"Via Selmi, 3,  - Bologna",40121,Bologna,Bologna
http://dati.beniculturali.it/mibact/luoghi/resource/CulturalInstituteOrSite/101953,Galleria d'arte moderna raccolta Lercaro,44.498844,11.337674,"Via Riva Reno, 57,  - Bologna",40121,Bologna,Bologna
http://dati.beniculturali.it/mibact/luoghi/resource/CulturalInstituteOrSite/101954,Museo di San Pietro: Tesoro della Cattedrale,44.495255,11.34442,"Via Altabella, 6,  - Bologna",40121,Bologna,Bologna
http://dati.beniculturali.it/mibact/luoghi/resource/CulturalInstituteOrSite/101955,Museo di San Giovanni in Monte,44.491184,11.34844,"Piazza San Giovanni in Monte, 1/2,  - Bologna",40121,Bologna,Bologna
http://dati.beniculturali.it/mibact/luoghi/resource/CulturalInstituteOrSite/101956,"Musei civici d'arte antica -  Museo d'arte industriale ""Davia Bargellini""",44.492157,11.351874,"Strada Maggiore, 44,  - Bologna",40121,Bologna,Bologna
http://dati.beniculturali.it/mibact/luoghi/resource/CulturalInstituteOrSite/101958,Collezione storica ATC Bologna,44.50783,11.35061,"Via Bigari, 1/a,  - Bologna",40121,Bologna,Bologna
http://dati.beniculturali.it/mibact/luoghi/resource/CulturalInstituteOrSite/101959,Museo della Santa,44.48891,11.339767,"Via Tagliapietre, 21,  - Bologna",40121,Bologna,Bologna
http://dati.beniculturali.it/mibact/luoghi/resource/CulturalInstituteOrSite/101960,Museo della Beata Vergine di San Luca,44.490692,11.329997,"Piazza di Porta Saragozza, 2/a,  - Bologna",40121,Bologna,Bologna
http://dati.beniculturali.it/mibact/luoghi/resource/CulturalInstituteOrSite/101961,Museo di fisica di Bologna,44.498833,11.353877,"Via Irnerio, 46,  - Bologna",40121,Bologna,Bologna
http://dati.beniculturali.it/mibact/luoghi/resource/CulturalInstituteOrSite/101962,Museo di Santo Stefano,44.492104,11.34848,"Via S. Stefano, 24,  - Bologna",40121,Bologna,Bologna
http://dati.beniculturali.it/mibact/luoghi/resource/CulturalInstituteOrSite/101965,Museo del patrimonio industriale,44.521988,11.331256,"Via della Beverara, 123,  - Bologna",40121,Bologna,Bologna
http://dati.beniculturali.it/mibact/luoghi/resource/CulturalInstituteOrSite/101966,Museo di San Petronio,44.494022,11.342454,"Piazza Maggiore,  - Bologna",40121,Bologna,Bologna
http://dati.beniculturali.it/mibact/luoghi/resource/CulturalInstituteOrSite/101968,Museo civico del Risorgimento,44.487843,11.357074,"Piazza G. Carducci, 5,  - Bologna",40121,Bologna,Bologna
http://dati.beniculturali.it/mibact/luoghi/resource/CulturalInstituteOrSite/101969,Museo dell'assistenza infermieristica,44.477337,11.342398,"Via di Barbiano, 1/10,  - Bologna",40121,Bologna,Bologna
http://dati.beniculturali.it/mibact/luoghi/resource/CulturalInstituteOrSite/101970,Museo della sanità  e dell'assistenza,44.493305,11.344364,"Via Clavature, 8,  - Bologna",40121,Bologna,Bologna
http://dati.beniculturali.it/mibact/luoghi/resource/CulturalInstituteOrSite/101971,Museo della Resistenza di Bologna,44.49365,11.333932,"Via Sant'Isaia, 20,  - Bologna",40121,Bologna,Bologna
http://dati.beniculturali.it/mibact/luoghi/resource/CulturalInstituteOrSite/101972,"Museo di anatomia comparata ""E. Giacomini""",44.49565,11.35388,"Via Selmi, 3,  - Bologna",40121,Bologna,Bologna
http://dati.beniculturali.it/mibact/luoghi/resource/CulturalInstituteOrSite/101973,"Museo di mineralogia ""L. Bombicci""",44.498154,11.355921,"Piazza di Porta San Donato, 1,  - Bologna",40121,Bologna,Bologna
http://dati.beniculturali.it/mibact/luoghi/resource/CulturalInstituteOrSite/101979,Museo di antropologia,44.49565,11.35388,"Via Selmi, 3,  - Bologna",40121,Bologna,Bologna
http://dati.beniculturali.it/mibact/luoghi/resource/CulturalInstituteOrSite/103848,Pinacoteca d'arte moderna,42.027836,13.425338,"Piazza Castello,  - Avezzano",67051,Avezzano,L'Aquila
http://dati.beniculturali.it/mibact/luoghi/resource/CulturalInstituteOrSite/103848,Pinacoteca d'arte moderna,42.027836,13.425338,"Piazza Castello,  - Avezzano",67051,Avezzano,L'Aquila
http://dati.beniculturali.it/mibact/luoghi/resource/CulturalInstituteOrSite/103851,"Museo Storico e Pinacoteca ""Carlo Levi""",40.311874,16.231657,"Vico Secondo Umberto I,  - Aliano",75010,Aliano,Matera
